[
  {
    "id": 575438,
    "title": "Welcome Center",
    "category_id": 15599,
    "category": "Abandoned Base",
    "icon": "abandoned_base",
    "lat": 0.69060215842987,
    "lon": -1.0115678348537,
    "stitched_x": 4598.38,
    "stitched_y": 8337.71,
    "crop_x": 1884.38,
    "crop_y": 2737.71,
    "paste_x": 1843,
    "paste_y": 2628,
    "sprite_rect": {
      "height": 88,
      "pixelRatio": 2,
      "width": 66,
      "x": 0,
      "y": 0
    }
  },
  {
    "id": 575448,
    "title": "Camp One",
    "category_id": 15599,
    "category": "Abandoned Base",
    "icon": "abandoned_base",
    "lat": 0.77399663791451,
    "lon": -0.98859121128939,
    "stitched_x": 4866.08,
    "stitched_y": 7366.01,
    "crop_x": 2152.08,
    "crop_y": 1766.01,
    "paste_x": 2111,
    "paste_y": 1656,
    "sprite_rect": {
      "height": 88,
      "pixelRatio": 2,
      "width": 66,
      "x": 0,
      "y": 0
    }
  },
  {
    "id": 575449,
    "title": "Old Habitat",
    "category_id": 15599,
    "category": "Abandoned Base",
    "icon": "abandoned_base",
    "lat": 0.82442728606135,
    "lon": -1.024635943862,
    "stitched_x": 4446.13,
    "stitched_y": 6778.39,
    "crop_x": 1732.13,
    "crop_y": 1178.39,
    "paste_x": 1691,
    "paste_y": 1068,
    "sprite_rect": {
      "height": 88,
      "pixelRatio": 2,
      "width": 66,
      "x": 0,
      "y": 0
    }
  },
  {
    "id": 575455,
    "title": "Colonist Bunker (Sophie's Retreat)",
    "category_id": 15599,
    "category": "Abandoned Base",
    "icon": "abandoned_base",
    "lat": 0.82657444250466,
    "lon": -1.0098649875946,
    "stitched_x": 4618.22,
    "stitched_y": 6753.38,
    "crop_x": 1904.22,
    "crop_y": 1153.38,
    "paste_x": 1863,
    "paste_y": 1043,
    "sprite_rect": {
      "height": 88,
      "pixelRatio": 2,
      "width": 66,
      "x": 0,
      "y": 0
    }
  },
  {
    "id": 590173,
    "title": "Colonist Bunker (Unauthorized NoA Modification)",
    "category_id": 15599,
    "category": "Abandoned Base",
    "icon": "abandoned_base",
    "lat": 0.6569592135461,
    "lon": -1.0703516006479,
    "stitched_x": 3913.5,
    "stitched_y": 8729.7,
    "crop_x": 1199.5,
    "crop_y": 3129.7,
    "paste_x": 1158,
    "paste_y": 3020,
    "sprite_rect": {
      "height": 88,
      "pixelRatio": 2,
      "width": 66,
      "x": 0,
      "y": 0
    }
  },
  {
    "id": 591488,
    "title": "Colonist Bunker (Quaker's Meetinghouse)",
    "category_id": 15599,
    "category": "Abandoned Base",
    "icon": "abandoned_base",
    "lat": 0.66107421149914,
    "lon": -0.98056944442777,
    "stitched_x": 4959.54,
    "stitched_y": 8681.76,
    "crop_x": 2245.54,
    "crop_y": 3081.76,
    "paste_x": 2205,
    "paste_y": 2972,
    "sprite_rect": {
      "height": 88,
      "pixelRatio": 2,
      "width": 66,
      "x": 0,
      "y": 0
    }
  },
  {
    "id": 591518,
    "title": "Colonist Bunker (Anita's Garden)",
    "category_id": 15599,
    "category": "Abandoned Base",
    "icon": "abandoned_base",
    "lat": 0.72570931826155,
    "lon": -0.97738128119653,
    "stitched_x": 4996.68,
    "stitched_y": 7928.65,
    "crop_x": 2282.68,
    "crop_y": 2328.65,
    "paste_x": 2242,
    "paste_y": 2219,
    "sprite_rect": {
      "height": 88,
      "pixelRatio": 2,
      "width": 66,
      "x": 0,
      "y": 0
    }
  },
  {
    "id": 591557,
    "title": "Colonist Bunker (Salvage)",
    "category_id": 15599,
    "category": "Abandoned Base",
    "icon": "abandoned_base",
    "lat": 0.7682028832637,
    "lon": -1.0179434160198,
    "stitched_x": 4524.1,
    "stitched_y": 7433.52,
    "crop_x": 1810.1,
    "crop_y": 1833.52,
    "paste_x": 1769,
    "paste_y": 1724,
    "sprite_rect": {
      "height": 88,
      "pixelRatio": 2,
      "width": 66,
      "x": 0,
      "y": 0
    }
  },
  {
    "id": 591660,
    "title": "Colonist Bunker (Nahema's Lab)",
    "category_id": 15599,
    "category": "Abandoned Base",
    "icon": "abandoned_base",
    "lat": 0.65485967200487,
    "lon": -0.93780408634851,
    "stitched_x": 5457.79,
    "stitched_y": 8754.17,
    "crop_x": 2743.79,
    "crop_y": 3154.17,
    "paste_x": 2703,
    "paste_y": 3044,
    "sprite_rect": {
      "height": 88,
      "pixelRatio": 2,
      "width": 66,
      "x": 0,
      "y": 0
    }
  },
  {
    "id": 591661,
    "title": "Hot Cave Basecamp",
    "category_id": 15599,
    "category": "Abandoned Base",
    "icon": "abandoned_base",
    "lat": 0.6261375827403,
    "lon": -0.93810927426998,
    "stitched_x": 5454.23,
    "stitched_y": 9088.82,
    "crop_x": 2740.23,
    "crop_y": 3488.82,
    "paste_x": 2699,
    "paste_y": 3379,
    "sprite_rect": {
      "height": 88,
      "pixelRatio": 2,
      "width": 66,
      "x": 0,
      "y": 0
    }
  },
  {
    "id": 591662,
    "title": "Tadpole Pens",
    "category_id": 15599,
    "category": "Abandoned Base",
    "icon": "abandoned_base",
    "lat": 0.70729621233905,
    "lon": -0.83011147587695,
    "stitched_x": 6712.5,
    "stitched_y": 8143.19,
    "crop_x": 3998.5,
    "crop_y": 2543.19,
    "paste_x": 3958,
    "paste_y": 2433,
    "sprite_rect": {
      "height": 88,
      "pixelRatio": 2,
      "width": 66,
      "x": 0,
      "y": 0
    }
  },
  {
    "id": 591710,
    "title": "Research Outpost",
    "category_id": 15599,
    "category": "Abandoned Base",
    "icon": "abandoned_base",
    "lat": 0.73314942123366,
    "lon": -0.6561508029701,
    "stitched_x": 8739.29,
    "stitched_y": 7841.96,
    "crop_x": 6025.29,
    "crop_y": 2241.96,
    "paste_x": 5984,
    "paste_y": 2132,
    "sprite_rect": {
      "height": 88,
      "pixelRatio": 2,
      "width": 66,
      "x": 0,
      "y": 0
    }
  },
  {
    "id": 572141,
    "title": "Lifepod",
    "category_id": 15598,
    "category": "Lifepod",
    "icon": "lifepod",
    "lat": 0.70998422425809,
    "lon": -1.0246327736962,
    "stitched_x": 4446.16,
    "stitched_y": 8111.87,
    "crop_x": 1732.16,
    "crop_y": 2511.87,
    "paste_x": 1691,
    "paste_y": 2402,
    "sprite_rect": {
      "height": 88,
      "pixelRatio": 2,
      "width": 66,
      "x": 330,
      "y": 176
    }
  },
  {
    "id": 575461,
    "title": "Wreck Debris",
    "category_id": 15593,
    "category": "Point of Interest",
    "icon": "point_of_interest",
    "lat": 0.67550723789297,
    "lon": -1.0223490435548,
    "stitched_x": 4472.77,
    "stitched_y": 8513.59,
    "crop_x": 1758.77,
    "crop_y": 2913.59,
    "paste_x": 1718,
    "paste_y": 2804,
    "sprite_rect": {
      "height": 88,
      "pixelRatio": 2,
      "width": 66,
      "x": 396,
      "y": 264
    }
  },
  {
    "id": 589982,
    "title": "Wreck Debris",
    "category_id": 15593,
    "category": "Point of Interest",
    "icon": "point_of_interest",
    "lat": 0.61967433261214,
    "lon": -0.98447418851876,
    "stitched_x": 4914.04,
    "stitched_y": 9164.13,
    "crop_x": 2200.04,
    "crop_y": 3564.13,
    "paste_x": 2159,
    "paste_y": 3454,
    "sprite_rect": {
      "height": 88,
      "pixelRatio": 2,
      "width": 66,
      "x": 396,
      "y": 264
    }
  },
  {
    "id": 590044,
    "title": "Wreck Debris",
    "category_id": 15593,
    "category": "Point of Interest",
    "icon": "point_of_interest",
    "lat": 0.77815669410336,
    "lon": -1.0172947634905,
    "stitched_x": 4531.66,
    "stitched_y": 7317.54,
    "crop_x": 1817.66,
    "crop_y": 1717.54,
    "paste_x": 1777,
    "paste_y": 1608,
    "sprite_rect": {
      "height": 88,
      "pixelRatio": 2,
      "width": 66,
      "x": 396,
      "y": 264
    }
  },
  {
    "id": 590045,
    "title": "Wreck Debris",
    "category_id": 15593,
    "category": "Point of Interest",
    "icon": "point_of_interest",
    "lat": 0.74508714821735,
    "lon": -1.0763739200728,
    "stitched_x": 3843.33,
    "stitched_y": 7702.86,
    "crop_x": 1129.33,
    "crop_y": 2102.86,
    "paste_x": 1088,
    "paste_y": 1993,
    "sprite_rect": {
      "height": 88,
      "pixelRatio": 2,
      "width": 66,
      "x": 396,
      "y": 264
    }
  },
  {
    "id": 590046,
    "title": "Wreck Debris",
    "category_id": 15593,
    "category": "Point of Interest",
    "icon": "point_of_interest",
    "lat": 0.84018903322342,
    "lon": -0.98647509775799,
    "stitched_x": 4890.73,
    "stitched_y": 6594.74,
    "crop_x": 2176.73,
    "crop_y": 994.74,
    "paste_x": 2136,
    "paste_y": 885,
    "sprite_rect": {
      "height": 88,
      "pixelRatio": 2,
      "width": 66,
      "x": 396,
      "y": 264
    }
  },
  {
    "id": 590055,
    "title": "Wreck Debris",
    "category_id": 15593,
    "category": "Point of Interest",
    "icon": "point_of_interest",
    "lat": 0.6923991615195,
    "lon": -1.0620538813815,
    "stitched_x": 4010.18,
    "stitched_y": 8316.77,
    "crop_x": 1296.18,
    "crop_y": 2716.77,
    "paste_x": 1255,
    "paste_y": 2607,
    "sprite_rect": {
      "height": 88,
      "pixelRatio": 2,
      "width": 66,
      "x": 396,
      "y": 264
    }
  },
  {
    "id": 590056,
    "title": "Wreck Debris",
    "category_id": 15593,
    "category": "Point of Interest",
    "icon": "point_of_interest",
    "lat": 0.71422730831019,
    "lon": -1.068892814071,
    "stitched_x": 3930.5,
    "stitched_y": 8062.43,
    "crop_x": 1216.5,
    "crop_y": 2462.43,
    "paste_x": 1175,
    "paste_y": 2352,
    "sprite_rect": {
      "height": 88,
      "pixelRatio": 2,
      "width": 66,
      "x": 396,
      "y": 264
    }
  },
  {
    "id": 590057,
    "title": "Wreck Debris",
    "category_id": 15593,
    "category": "Point of Interest",
    "icon": "point_of_interest",
    "lat": 0.6656226485398,
    "lon": -1.0703911782968,
    "stitched_x": 3913.04,
    "stitched_y": 8628.76,
    "crop_x": 1199.04,
    "crop_y": 3028.76,
    "paste_x": 1158,
    "paste_y": 2919,
    "sprite_rect": {
      "height": 88,
      "pixelRatio": 2,
      "width": 66,
      "x": 396,
      "y": 264
    }
  },
  {
    "id": 590061,
    "title": "Wreck Debris",
    "category_id": 15593,
    "category": "Point of Interest",
    "icon": "point_of_interest",
    "lat": 0.62914148394786,
    "lon": -1.0884187216443,
    "stitched_x": 3703.0,
    "stitched_y": 9053.82,
    "crop_x": 989.0,
    "crop_y": 3453.82,
    "paste_x": 948,
    "paste_y": 3344,
    "sprite_rect": {
      "height": 88,
      "pixelRatio": 2,
      "width": 66,
      "x": 396,
      "y": 264
    }
  },
  {
    "id": 590062,
    "title": "Wreck Debris",
    "category_id": 15593,
    "category": "Point of Interest",
    "icon": "point_of_interest",
    "lat": 0.72753755783711,
    "lon": -0.97147710222271,
    "stitched_x": 5065.47,
    "stitched_y": 7907.35,
    "crop_x": 2351.47,
    "crop_y": 2307.35,
    "paste_x": 2310,
    "paste_y": 2197,
    "sprite_rect": {
      "height": 88,
      "pixelRatio": 2,
      "width": 66,
      "x": 396,
      "y": 264
    }
  },
  {
    "id": 590063,
    "title": "Wreck Debris",
    "category_id": 15593,
    "category": "Point of Interest",
    "icon": "point_of_interest",
    "lat": 0.7232994133356,
    "lon": -0.91468298887642,
    "stitched_x": 5727.17,
    "stitched_y": 7956.73,
    "crop_x": 3013.17,
    "crop_y": 2356.73,
    "paste_x": 2972,
    "paste_y": 2247,
    "sprite_rect": {
      "height": 88,
      "pixelRatio": 2,
      "width": 66,
      "x": 396,
      "y": 264
    }
  },
  {
    "id": 590066,
    "title": "Wreck Debris",
    "category_id": 15593,
    "category": "Point of Interest",
    "icon": "point_of_interest",
    "lat": 0.70757850134822,
    "lon": -0.97193884036662,
    "stitched_x": 5060.09,
    "stitched_y": 8139.9,
    "crop_x": 2346.09,
    "crop_y": 2539.9,
    "paste_x": 2305,
    "paste_y": 2430,
    "sprite_rect": {
      "height": 88,
      "pixelRatio": 2,
      "width": 66,
      "x": 396,
      "y": 264
    }
  },
  {
    "id": 590067,
    "title": "Wreck Debris",
    "category_id": 15593,
    "category": "Point of Interest",
    "icon": "point_of_interest",
    "lat": 0.64101967277097,
    "lon": -0.93579128431787,
    "stitched_x": 5481.24,
    "stitched_y": 8915.42,
    "crop_x": 2767.24,
    "crop_y": 3315.42,
    "paste_x": 2726,
    "paste_y": 3205,
    "sprite_rect": {
      "height": 88,
      "pixelRatio": 2,
      "width": 66,
      "x": 396,
      "y": 264
    }
  },
  {
    "id": 590182,
    "title": "Spider Dome",
    "category_id": 15593,
    "category": "Point of Interest",
    "icon": "point_of_interest",
    "lat": 0.68038409990514,
    "lon": -1.0862064494492,
    "stitched_x": 3728.78,
    "stitched_y": 8456.76,
    "crop_x": 1014.78,
    "crop_y": 2856.76,
    "paste_x": 974,
    "paste_y": 2747,
    "sprite_rect": {
      "height": 88,
      "pixelRatio": 2,
      "width": 66,
      "x": 396,
      "y": 264
    }
  },
  {
    "id": 575447,
    "title": "Wreck",
    "category_id": 15597,
    "category": "Wreck",
    "icon": "wreck",
    "lat": 0.72938202566331,
    "lon": -1.0081646832453,
    "stitched_x": 4636,
    "stitched_y": 7876,
    "crop_x": 1922,
    "crop_y": 2276,
    "paste_x": 1883,
    "paste_y": 2176,
    "sprite_rect": {
      "height": 88,
      "pixelRatio": 2,
      "width": 66,
      "x": 0,
      "y": 440
    }
  },
  {
    "id": 575460,
    "title": "Wreck",
    "category_id": 15597,
    "category": "Wreck",
    "icon": "wreck",
    "lat": 0.78184043390736,
    "lon": -1.0668631599197,
    "stitched_x": 3954.14,
    "stitched_y": 7274.62,
    "crop_x": 1240.14,
    "crop_y": 1674.62,
    "paste_x": 1199,
    "paste_y": 1565,
    "sprite_rect": {
      "height": 88,
      "pixelRatio": 2,
      "width": 66,
      "x": 0,
      "y": 440
    }
  },
  {
    "id": 589976,
    "title": "Wreck",
    "category_id": 15597,
    "category": "Wreck",
    "icon": "wreck",
    "lat": 0.63546680103413,
    "lon": -0.51045925934918,
    "stitched_x": 10436.72,
    "stitched_y": 8980.12,
    "crop_x": 7722.72,
    "crop_y": 3380.12,
    "paste_x": 7682,
    "paste_y": 3270,
    "sprite_rect": {
      "height": 88,
      "pixelRatio": 2,
      "width": 66,
      "x": 0,
      "y": 440
    }
  },
  {
    "id": 589977,
    "title": "Cicada Wreck (Empty Hold)",
    "category_id": 15597,
    "category": "Wreck",
    "icon": "wreck",
    "lat": 0.70818497881875,
    "lon": -0.88232338931979,
    "stitched_x": 6104.19,
    "stitched_y": 8132.84,
    "crop_x": 3390.19,
    "crop_y": 2532.84,
    "paste_x": 3349,
    "paste_y": 2423,
    "sprite_rect": {
      "height": 88,
      "pixelRatio": 2,
      "width": 66,
      "x": 0,
      "y": 440
    }
  },
  {
    "id": 589978,
    "title": "Cicada Wreck (Canteen)",
    "category_id": 15597,
    "category": "Wreck",
    "icon": "wreck",
    "lat": 0.63784151047315,
    "lon": -1.0251225919556,
    "stitched_x": 4440.46,
    "stitched_y": 8952.45,
    "crop_x": 1726.46,
    "crop_y": 3352.45,
    "paste_x": 1685,
    "paste_y": 3242,
    "sprite_rect": {
      "height": 88,
      "pixelRatio": 2,
      "width": 66,
      "x": 0,
      "y": 440
    }
  },
  {
    "id": 589979,
    "title": "Wreck",
    "category_id": 15597,
    "category": "Wreck",
    "icon": "wreck",
    "lat": 0.71567347274174,
    "lon": -1.0876534496696,
    "stitched_x": 3711.92,
    "stitched_y": 8045.58,
    "crop_x": 997.92,
    "crop_y": 2445.58,
    "paste_x": 957,
    "paste_y": 2336,
    "sprite_rect": {
      "height": 88,
      "pixelRatio": 2,
      "width": 66,
      "x": 0,
      "y": 440
    }
  },
  {
    "id": 589980,
    "title": "Wreck",
    "category_id": 15597,
    "category": "Wreck",
    "icon": "wreck",
    "lat": 0.74543995609569,
    "lon": -0.40314540266962,
    "stitched_x": 11687.02,
    "stitched_y": 7698.75,
    "crop_x": 8973.02,
    "crop_y": 2098.75,
    "paste_x": 8932,
    "paste_y": 1989,
    "sprite_rect": {
      "height": 88,
      "pixelRatio": 2,
      "width": 66,
      "x": 0,
      "y": 440
    }
  },
  {
    "id": 589981,
    "title": "Cicada Wreck (Therapy Room)",
    "category_id": 15597,
    "category": "Wreck",
    "icon": "wreck",
    "lat": 0.6608873098903,
    "lon": -0.43947989078617,
    "stitched_x": 11263.69,
    "stitched_y": 8683.93,
    "crop_x": 8549.69,
    "crop_y": 3083.93,
    "paste_x": 8509,
    "paste_y": 2974,
    "sprite_rect": {
      "height": 88,
      "pixelRatio": 2,
      "width": 66,
      "x": 0,
      "y": 440
    }
  },
  {
    "id": 589983,
    "title": "Wreck",
    "category_id": 15597,
    "category": "Wreck",
    "icon": "wreck",
    "lat": 0.78733158306197,
    "lon": -1.0304573263033,
    "stitched_x": 4378.3,
    "stitched_y": 7210.63,
    "crop_x": 1664.3,
    "crop_y": 1610.63,
    "paste_x": 1623,
    "paste_y": 1501,
    "sprite_rect": {
      "height": 88,
      "pixelRatio": 2,
      "width": 66,
      "x": 0,
      "y": 440
    }
  },
  {
    "id": 589984,
    "title": "Wreck",
    "category_id": 15597,
    "category": "Wreck",
    "icon": "wreck",
    "lat": 0.63875053436016,
    "lon": -1.0671026293623,
    "stitched_x": 3951.35,
    "stitched_y": 8941.86,
    "crop_x": 1237.35,
    "crop_y": 3341.86,
    "paste_x": 1196,
    "paste_y": 3232,
    "sprite_rect": {
      "height": 88,
      "pixelRatio": 2,
      "width": 66,
      "x": 0,
      "y": 440
    }
  },
  {
    "id": 590050,
    "title": "Cicada Wreck (Lander Garage)",
    "category_id": 15597,
    "category": "Wreck",
    "icon": "wreck",
    "lat": 0.78345161077304,
    "lon": -0.93925336275458,
    "stitched_x": 5440.91,
    "stitched_y": 7255.84,
    "crop_x": 2726.91,
    "crop_y": 1655.84,
    "paste_x": 2686,
    "paste_y": 1546,
    "sprite_rect": {
      "height": 88,
      "pixelRatio": 2,
      "width": 66,
      "x": 0,
      "y": 440
    }
  },
  {
    "id": 590051,
    "title": "Cicada",
    "category_id": 15597,
    "category": "Wreck",
    "icon": "wreck",
    "lat": 0.66201916147776,
    "lon": -1.0441377008733,
    "stitched_x": 4218.91,
    "stitched_y": 8670.75,
    "crop_x": 1504.91,
    "crop_y": 3070.75,
    "paste_x": 1464,
    "paste_y": 2961,
    "sprite_rect": {
      "height": 88,
      "pixelRatio": 2,
      "width": 66,
      "x": 0,
      "y": 440
    }
  },
  {
    "id": 577383,
    "title": "Collector Leviathan",
    "category_id": 15607,
    "category": "Leviathan",
    "icon": "leviathon",
    "lat": 0.68950690589141,
    "lon": -0.80890251350777,
    "stitched_x": 6959.6,
    "stitched_y": 8350.47,
    "crop_x": 4245.6,
    "crop_y": 2750.47,
    "paste_x": 4205,
    "paste_y": 2640,
    "sprite_rect": {
      "height": 88,
      "pixelRatio": 2,
      "width": 66,
      "x": 264,
      "y": 176
    }
  },
  {
    "id": 577384,
    "title": "Collector Leviathan",
    "category_id": 15607,
    "category": "Leviathan",
    "icon": "leviathon",
    "lat": 0.68950690589141,
    "lon": -0.7850644993822,
    "stitched_x": 7237.34,
    "stitched_y": 8350.47,
    "crop_x": 4523.34,
    "crop_y": 2750.47,
    "paste_x": 4482,
    "paste_y": 2640,
    "sprite_rect": {
      "height": 88,
      "pixelRatio": 2,
      "width": 66,
      "x": 264,
      "y": 176
    }
  },
  {
    "id": 577385,
    "title": "Collector Leviathan",
    "category_id": 15607,
    "category": "Leviathan",
    "icon": "leviathon",
    "lat": 0.68950690589141,
    "lon": -0.76032261701726,
    "stitched_x": 7525.6,
    "stitched_y": 8350.47,
    "crop_x": 4811.6,
    "crop_y": 2750.47,
    "paste_x": 4771,
    "paste_y": 2640,
    "sprite_rect": {
      "height": 88,
      "pixelRatio": 2,
      "width": 66,
      "x": 264,
      "y": 176
    }
  },
  {
    "id": 577386,
    "title": "Collector Leviathan",
    "category_id": 15607,
    "category": "Leviathan",
    "icon": "leviathon",
    "lat": 0.84598871323683,
    "lon": -0.42599718886656,
    "stitched_x": 11420.77,
    "stitched_y": 6527.16,
    "crop_x": 8706.77,
    "crop_y": 927.16,
    "paste_x": 8666,
    "paste_y": 817,
    "sprite_rect": {
      "height": 88,
      "pixelRatio": 2,
      "width": 66,
      "x": 264,
      "y": 176
    }
  },
  {
    "id": 577777,
    "title": "Great Jaw",
    "category_id": 15607,
    "category": "Leviathan",
    "icon": "leviathon",
    "lat": 0.61216905958834,
    "lon": -1.0486125802729,
    "stitched_x": 4166.78,
    "stitched_y": 9251.58,
    "crop_x": 1452.78,
    "crop_y": 3651.58,
    "paste_x": 1412,
    "paste_y": 3542,
    "sprite_rect": {
      "height": 88,
      "pixelRatio": 2,
      "width": 66,
      "x": 264,
      "y": 176
    }
  },
  {
    "id": 591454,
    "title": "Heat Tolerance Adaptation",
    "category_id": 15624,
    "category": "Adaptation",
    "icon": "adaptation",
    "lat": 0.73950665535114,
    "lon": -1.0731117328225,
    "stitched_x": 3881.34,
    "stitched_y": 7767.88,
    "crop_x": 1167.34,
    "crop_y": 2167.88,
    "paste_x": 1126,
    "paste_y": 2058,
    "sprite_rect": {
      "height": 88,
      "pixelRatio": 2,
      "width": 66,
      "x": 66,
      "y": 0
    }
  },
  {
    "id": 591455,
    "title": "Digestion Adaptation",
    "category_id": 15624,
    "category": "Adaptation",
    "icon": "adaptation",
    "lat": 0.75321571810836,
    "lon": -1.0067865444089,
    "stitched_x": 4654.09,
    "stitched_y": 7608.15,
    "crop_x": 1940.09,
    "crop_y": 2008.15,
    "paste_x": 1899,
    "paste_y": 1898,
    "sprite_rect": {
      "height": 88,
      "pixelRatio": 2,
      "width": 66,
      "x": 66,
      "y": 0
    }
  },
  {
    "id": 591457,
    "title": "Axum Vision Adaptation",
    "category_id": 15624,
    "category": "Adaptation",
    "icon": "adaptation",
    "lat": 0.6972845883205,
    "lon": -0.53164611401462,
    "stitched_x": 10189.87,
    "stitched_y": 8259.85,
    "crop_x": 7475.87,
    "crop_y": 2659.85,
    "paste_x": 7435,
    "paste_y": 2550,
    "sprite_rect": {
      "height": 88,
      "pixelRatio": 2,
      "width": 66,
      "x": 66,
      "y": 0
    }
  },
  {
    "id": 572374,
    "title": "High Capacity Air Tank",
    "category_id": 15611,
    "category": "Data Box",
    "icon": "data_box",
    "lat": 0.72751377449164,
    "lon": -0.65137547086725,
    "stitched_x": 8794.93,
    "stitched_y": 7907.62,
    "crop_x": 6080.93,
    "crop_y": 2307.62,
    "paste_x": 6040,
    "paste_y": 2198,
    "sprite_rect": {
      "height": 88,
      "pixelRatio": 2,
      "width": 66,
      "x": 66,
      "y": 88
    }
  },
  {
    "id": 572375,
    "title": "Roof Cylinder",
    "category_id": 15611,
    "category": "Data Box",
    "icon": "data_box",
    "lat": 0.69825949148478,
    "lon": -0.90298056162612,
    "stitched_x": 5863.51,
    "stitched_y": 8248.49,
    "crop_x": 3149.51,
    "crop_y": 2648.49,
    "paste_x": 3109,
    "paste_y": 2538,
    "sprite_rect": {
      "height": 88,
      "pixelRatio": 2,
      "width": 66,
      "x": 66,
      "y": 88
    }
  },
  {
    "id": 572376,
    "title": "Roof Pump",
    "category_id": 15611,
    "category": "Data Box",
    "icon": "data_box",
    "lat": 0.65442205432773,
    "lon": -0.93207857310254,
    "stitched_x": 5524.5,
    "stitched_y": 8759.26,
    "crop_x": 2810.5,
    "crop_y": 3159.26,
    "paste_x": 2769,
    "paste_y": 3049,
    "sprite_rect": {
      "height": 88,
      "pixelRatio": 2,
      "width": 66,
      "x": 66,
      "y": 88
    }
  },
  {
    "id": 572377,
    "title": "Roof Antenna",
    "category_id": 15611,
    "category": "Data Box",
    "icon": "data_box",
    "lat": 0.67397458245909,
    "lon": -0.92419235018116,
    "stitched_x": 5616.38,
    "stitched_y": 8531.45,
    "crop_x": 2902.38,
    "crop_y": 2931.45,
    "paste_x": 2861,
    "paste_y": 2821,
    "sprite_rect": {
      "height": 88,
      "pixelRatio": 2,
      "width": 66,
      "x": 66,
      "y": 88
    }
  },
  {
    "id": 572378,
    "title": "Small Crate",
    "category_id": 15611,
    "category": "Data Box",
    "icon": "data_box",
    "lat": 0.69945343392983,
    "lon": -0.84232464775761,
    "stitched_x": 6570.21,
    "stitched_y": 8234.57,
    "crop_x": 3856.21,
    "crop_y": 2634.57,
    "paste_x": 3815,
    "paste_y": 2525,
    "sprite_rect": {
      "height": 88,
      "pixelRatio": 2,
      "width": 66,
      "x": 66,
      "y": 88
    }
  },
  {
    "id": 572379,
    "title": "High Capacity Air Tank",
    "category_id": 15611,
    "category": "Data Box",
    "icon": "data_box",
    "lat": 0.63752492601023,
    "lon": -1.0656976618417,
    "stitched_x": 3967.72,
    "stitched_y": 8956.14,
    "crop_x": 1253.72,
    "crop_y": 3356.14,
    "paste_x": 1213,
    "paste_y": 3246,
    "sprite_rect": {
      "height": 88,
      "pixelRatio": 2,
      "width": 66,
      "x": 66,
      "y": 88
    }
  },
  {
    "id": 572380,
    "title": "Moonpool",
    "category_id": 15611,
    "category": "Data Box",
    "icon": "data_box",
    "lat": 0.64086646868788,
    "lon": -1.0218151508388,
    "stitched_x": 4478.99,
    "stitched_y": 8917.21,
    "crop_x": 1764.99,
    "crop_y": 3317.21,
    "paste_x": 1724,
    "paste_y": 3207,
    "sprite_rect": {
      "height": 88,
      "pixelRatio": 2,
      "width": 66,
      "x": 66,
      "y": 88
    }
  },
  {
    "id": 572381,
    "title": "Nook",
    "category_id": 15611,
    "category": "Data Box",
    "icon": "data_box",
    "lat": 0.62046112452434,
    "lon": -0.98866849661529,
    "stitched_x": 4865.18,
    "stitched_y": 9154.96,
    "crop_x": 2151.18,
    "crop_y": 3554.96,
    "paste_x": 2110,
    "paste_y": 3445,
    "sprite_rect": {
      "height": 88,
      "pixelRatio": 2,
      "width": 66,
      "x": 66,
      "y": 88
    }
  },
  {
    "id": 572383,
    "title": "Moonpool",
    "category_id": 15611,
    "category": "Data Box",
    "icon": "data_box",
    "lat": 0.67329831430726,
    "lon": -0.91593806882823,
    "stitched_x": 5712.55,
    "stitched_y": 8539.33,
    "crop_x": 2998.55,
    "crop_y": 2939.33,
    "paste_x": 2958,
    "paste_y": 2829,
    "sprite_rect": {
      "height": 88,
      "pixelRatio": 2,
      "width": 66,
      "x": 66,
      "y": 88
    }
  },
  {
    "id": 572384,
    "title": "Half Round Room",
    "category_id": 15611,
    "category": "Data Box",
    "icon": "data_box",
    "lat": 0.70243320306961,
    "lon": -0.83034670219422,
    "stitched_x": 6709.76,
    "stitched_y": 8199.86,
    "crop_x": 3995.76,
    "crop_y": 2599.86,
    "paste_x": 3955,
    "paste_y": 2490,
    "sprite_rect": {
      "height": 88,
      "pixelRatio": 2,
      "width": 66,
      "x": 66,
      "y": 88
    }
  },
  {
    "id": 572386,
    "title": "Half Round Room",
    "category_id": 15611,
    "category": "Data Box",
    "icon": "data_box",
    "lat": 0.70276236013467,
    "lon": -0.88564972226721,
    "stitched_x": 6065.43,
    "stitched_y": 8196.02,
    "crop_x": 3351.43,
    "crop_y": 2596.02,
    "paste_x": 3310,
    "paste_y": 2486,
    "sprite_rect": {
      "height": 88,
      "pixelRatio": 2,
      "width": 66,
      "x": 66,
      "y": 88
    }
  },
  {
    "id": 572387,
    "title": "Interior Wall",
    "category_id": 15611,
    "category": "Data Box",
    "icon": "data_box",
    "lat": 0.62600772030413,
    "lon": -0.93567241937446,
    "stitched_x": 5482.63,
    "stitched_y": 9090.34,
    "crop_x": 2768.63,
    "crop_y": 3490.34,
    "paste_x": 2728,
    "paste_y": 3380,
    "sprite_rect": {
      "height": 88,
      "pixelRatio": 2,
      "width": 66,
      "x": 66,
      "y": 88
    }
  },
  {
    "id": 572388,
    "title": "Anomaly",
    "category_id": 15611,
    "category": "Data Box",
    "icon": "data_box",
    "lat": 0.77437197580477,
    "lon": -0.94056271027094,
    "stitched_x": 5425.65,
    "stitched_y": 7361.64,
    "crop_x": 2711.65,
    "crop_y": 1761.64,
    "paste_x": 2671,
    "paste_y": 1652,
    "sprite_rect": {
      "height": 88,
      "pixelRatio": 2,
      "width": 66,
      "x": 66,
      "y": 88
    }
  },
  {
    "id": 572389,
    "title": "Cicada Debris",
    "category_id": 15611,
    "category": "Data Box",
    "icon": "data_box",
    "lat": 0.82079628825942,
    "lon": -1.0276254432507,
    "stitched_x": 4411.3,
    "stitched_y": 6820.7,
    "crop_x": 1697.3,
    "crop_y": 1220.7,
    "paste_x": 1656,
    "paste_y": 1111,
    "sprite_rect": {
      "height": 88,
      "pixelRatio": 2,
      "width": 66,
      "x": 66,
      "y": 88
    }
  },
  {
    "id": 572390,
    "title": "Moonpool",
    "category_id": 15611,
    "category": "Data Box",
    "icon": "data_box",
    "lat": 0.70148941999401,
    "lon": -0.82859575022135,
    "stitched_x": 6730.16,
    "stitched_y": 8210.85,
    "crop_x": 4016.16,
    "crop_y": 2610.85,
    "paste_x": 3975,
    "paste_y": 2501,
    "sprite_rect": {
      "height": 88,
      "pixelRatio": 2,
      "width": 66,
      "x": 66,
      "y": 88
    }
  },
  {
    "id": 572391,
    "title": "Room",
    "category_id": 15611,
    "category": "Data Box",
    "icon": "data_box",
    "lat": 0.78643947227689,
    "lon": -0.93981155881362,
    "stitched_x": 5434.4,
    "stitched_y": 7221.03,
    "crop_x": 2720.4,
    "crop_y": 1621.03,
    "paste_x": 2679,
    "paste_y": 1511,
    "sprite_rect": {
      "height": 88,
      "pixelRatio": 2,
      "width": 66,
      "x": 66,
      "y": 88
    }
  },
  {
    "id": 572392,
    "title": "Room",
    "category_id": 15611,
    "category": "Data Box",
    "icon": "data_box",
    "lat": 0.63534560700591,
    "lon": -1.0696569644039,
    "stitched_x": 3921.59,
    "stitched_y": 8981.54,
    "crop_x": 1207.59,
    "crop_y": 3381.54,
    "paste_x": 1167,
    "paste_y": 3272,
    "sprite_rect": {
      "height": 88,
      "pixelRatio": 2,
      "width": 66,
      "x": 66,
      "y": 88
    }
  },
  {
    "id": 572393,
    "title": "Interior Wall",
    "category_id": 15611,
    "category": "Data Box",
    "icon": "data_box",
    "lat": 0.81903469949401,
    "lon": -0.98732405693996,
    "stitched_x": 4880.84,
    "stitched_y": 6841.23,
    "crop_x": 2166.84,
    "crop_y": 1241.23,
    "paste_x": 2126,
    "paste_y": 1131,
    "sprite_rect": {
      "height": 88,
      "pixelRatio": 2,
      "width": 66,
      "x": 66,
      "y": 88
    }
  },
  {
    "id": 572394,
    "title": "Room",
    "category_id": 15611,
    "category": "Data Box",
    "icon": "data_box",
    "lat": 0.8198731523088,
    "lon": -1.0264339516589,
    "stitched_x": 4425.18,
    "stitched_y": 6831.46,
    "crop_x": 1711.18,
    "crop_y": 1231.46,
    "paste_x": 1670,
    "paste_y": 1121,
    "sprite_rect": {
      "height": 88,
      "pixelRatio": 2,
      "width": 66,
      "x": 66,
      "y": 88
    }
  },
  {
    "id": 572395,
    "title": "Half Round Room",
    "category_id": 15611,
    "category": "Data Box",
    "icon": "data_box",
    "lat": 0.66759581777211,
    "lon": -0.87713031162776,
    "stitched_x": 6164.69,
    "stitched_y": 8605.77,
    "crop_x": 3450.69,
    "crop_y": 3005.77,
    "paste_x": 3410,
    "paste_y": 2896,
    "sprite_rect": {
      "height": 88,
      "pixelRatio": 2,
      "width": 66,
      "x": 66,
      "y": 88
    }
  },
  {
    "id": 572396,
    "title": "Tadpole Depth Module Mk. 1",
    "category_id": 15611,
    "category": "Data Box",
    "icon": "data_box",
    "lat": 0.65812507130954,
    "lon": -0.62873366110055,
    "stitched_x": 9058.72,
    "stitched_y": 8716.12,
    "crop_x": 6344.72,
    "crop_y": 3116.12,
    "paste_x": 6304,
    "paste_y": 3006,
    "sprite_rect": {
      "height": 88,
      "pixelRatio": 2,
      "width": 66,
      "x": 66,
      "y": 88
    }
  },
  {
    "id": 572397,
    "title": "Engine Efficiency",
    "category_id": 15611,
    "category": "Data Box",
    "icon": "data_box",
    "lat": 0.73263845076078,
    "lon": -0.64775762706994,
    "stitched_x": 8837.08,
    "stitched_y": 7847.91,
    "crop_x": 6123.08,
    "crop_y": 2247.91,
    "paste_x": 6082,
    "paste_y": 2138,
    "sprite_rect": {
      "height": 88,
      "pixelRatio": 2,
      "width": 66,
      "x": 66,
      "y": 88
    }
  },
  {
    "id": 572398,
    "title": "Strike Armor",
    "category_id": 15611,
    "category": "Data Box",
    "icon": "data_box",
    "lat": 0.67783205031203,
    "lon": -0.67042350769151,
    "stitched_x": 8573.0,
    "stitched_y": 8486.5,
    "crop_x": 5859.0,
    "crop_y": 2886.5,
    "paste_x": 5818,
    "paste_y": 2776,
    "sprite_rect": {
      "height": 88,
      "pixelRatio": 2,
      "width": 66,
      "x": 66,
      "y": 88
    }
  },
  {
    "id": 572399,
    "title": "Cavitation Muffler",
    "category_id": 15611,
    "category": "Data Box",
    "icon": "data_box",
    "lat": 0.80303616996411,
    "lon": -0.46977781158098,
    "stitched_x": 10910.69,
    "stitched_y": 7027.64,
    "crop_x": 8196.69,
    "crop_y": 1427.64,
    "paste_x": 8156,
    "paste_y": 1318,
    "sprite_rect": {
      "height": 88,
      "pixelRatio": 2,
      "width": 66,
      "x": 66,
      "y": 88
    }
  },
  {
    "id": 572400,
    "title": "Photovoltaic Charger",
    "category_id": 15611,
    "category": "Data Box",
    "icon": "data_box",
    "lat": 0.63341221397233,
    "lon": -0.51622867584103,
    "stitched_x": 10369.5,
    "stitched_y": 9004.06,
    "crop_x": 7655.5,
    "crop_y": 3404.06,
    "paste_x": 7615,
    "paste_y": 3294,
    "sprite_rect": {
      "height": 88,
      "pixelRatio": 2,
      "width": 66,
      "x": 66,
      "y": 88
    }
  },
  {
    "id": 590179,
    "title": "Advanced Wiring Kit",
    "category_id": 15617,
    "category": "Electronics",
    "icon": "electronics",
    "lat": 0.6588275410096,
    "lon": -1.0697232017713,
    "stitched_x": 3920.82,
    "stitched_y": 8707.93,
    "crop_x": 1206.82,
    "crop_y": 3107.93,
    "paste_x": 1166,
    "paste_y": 2998,
    "sprite_rect": {
      "height": 88,
      "pixelRatio": 2,
      "width": 66,
      "x": 462,
      "y": 88
    }
  },
  {
    "id": 591112,
    "title": "Portable Locker",
    "category_id": 15614,
    "category": "Equipment",
    "icon": "equipment",
    "lat": 0.70965797498413,
    "lon": -1.0243121214957,
    "stitched_x": 4449.9,
    "stitched_y": 8115.67,
    "crop_x": 1735.9,
    "crop_y": 2515.67,
    "paste_x": 1695,
    "paste_y": 2406,
    "sprite_rect": {
      "height": 88,
      "pixelRatio": 2,
      "width": 66,
      "x": 0,
      "y": 176
    }
  },
  {
    "id": 591114,
    "title": "Portable Locker",
    "category_id": 15614,
    "category": "Equipment",
    "icon": "equipment",
    "lat": 0.71101179779946,
    "lon": -1.0163756101887,
    "stitched_x": 4542.37,
    "stitched_y": 8099.9,
    "crop_x": 1828.37,
    "crop_y": 2499.9,
    "paste_x": 1787,
    "paste_y": 2390,
    "sprite_rect": {
      "height": 88,
      "pixelRatio": 2,
      "width": 66,
      "x": 0,
      "y": 176
    }
  },
  {
    "id": 591257,
    "title": "Portable Locker",
    "category_id": 15614,
    "category": "Equipment",
    "icon": "equipment",
    "lat": 0.67710963136038,
    "lon": -1.0899635527398,
    "stitched_x": 3685.0,
    "stitched_y": 8494.92,
    "crop_x": 971.0,
    "crop_y": 2894.92,
    "paste_x": 930,
    "paste_y": 2785,
    "sprite_rect": {
      "height": 88,
      "pixelRatio": 2,
      "width": 66,
      "x": 0,
      "y": 176
    }
  },
  {
    "id": 591539,
    "title": "Portable Locker",
    "category_id": 15614,
    "category": "Equipment",
    "icon": "equipment",
    "lat": 0.72826166416976,
    "lon": -0.99423804575366,
    "stitched_x": 4800.29,
    "stitched_y": 7898.91,
    "crop_x": 2086.29,
    "crop_y": 2298.91,
    "paste_x": 2045,
    "paste_y": 2189,
    "sprite_rect": {
      "height": 88,
      "pixelRatio": 2,
      "width": 66,
      "x": 0,
      "y": 176
    }
  },
  {
    "id": 591553,
    "title": "Portable Locker",
    "category_id": 15614,
    "category": "Equipment",
    "icon": "equipment",
    "lat": 0.74572813067851,
    "lon": -1.0192401291274,
    "stitched_x": 4508.99,
    "stitched_y": 7695.39,
    "crop_x": 1794.99,
    "crop_y": 2095.39,
    "paste_x": 1754,
    "paste_y": 1985,
    "sprite_rect": {
      "height": 88,
      "pixelRatio": 2,
      "width": 66,
      "x": 0,
      "y": 176
    }
  },
  {
    "id": 591568,
    "title": "Portable Locker",
    "category_id": 15614,
    "category": "Equipment",
    "icon": "equipment",
    "lat": 0.81877577131604,
    "lon": -1.0425131436395,
    "stitched_x": 4237.84,
    "stitched_y": 6844.25,
    "crop_x": 1523.84,
    "crop_y": 1244.25,
    "paste_x": 1483,
    "paste_y": 1134,
    "sprite_rect": {
      "height": 88,
      "pixelRatio": 2,
      "width": 66,
      "x": 0,
      "y": 176
    }
  },
  {
    "id": 575437,
    "title": "Habitat Builder",
    "category_id": 15610,
    "category": "Fragment",
    "icon": "fragment",
    "lat": 0.6866526129082,
    "lon": -1.0112282879808,
    "stitched_x": 4602.34,
    "stitched_y": 8383.73,
    "crop_x": 1888.34,
    "crop_y": 2783.73,
    "paste_x": 1847,
    "paste_y": 2674,
    "sprite_rect": {
      "height": 88,
      "pixelRatio": 2,
      "width": 66,
      "x": 132,
      "y": 176
    }
  },
  {
    "id": 575439,
    "title": "Habitat Builder",
    "category_id": 15610,
    "category": "Fragment",
    "icon": "fragment",
    "lat": 0.68910491236173,
    "lon": -1.0108736319848,
    "stitched_x": 4606.47,
    "stitched_y": 8355.15,
    "crop_x": 1892.47,
    "crop_y": 2755.15,
    "paste_x": 1851,
    "paste_y": 2645,
    "sprite_rect": {
      "height": 88,
      "pixelRatio": 2,
      "width": 66,
      "x": 132,
      "y": 176
    }
  },
  {
    "id": 575450,
    "title": "Power Transmitter",
    "category_id": 15610,
    "category": "Fragment",
    "icon": "fragment",
    "lat": 0.81966949652349,
    "lon": -0.98761654843167,
    "stitched_x": 4877.43,
    "stitched_y": 6833.83,
    "crop_x": 2163.43,
    "crop_y": 1233.83,
    "paste_x": 2122,
    "paste_y": 1124,
    "sprite_rect": {
      "height": 88,
      "pixelRatio": 2,
      "width": 66,
      "x": 132,
      "y": 176
    }
  },
  {
    "id": 575451,
    "title": "Hydroelectric Turbine",
    "category_id": 15610,
    "category": "Fragment",
    "icon": "fragment",
    "lat": 0.81762013311756,
    "lon": -0.98783499818541,
    "stitched_x": 4874.89,
    "stitched_y": 6857.71,
    "crop_x": 2160.89,
    "crop_y": 1257.71,
    "paste_x": 2120,
    "paste_y": 1148,
    "sprite_rect": {
      "height": 88,
      "pixelRatio": 2,
      "width": 66,
      "x": 132,
      "y": 176
    }
  },
  {
    "id": 575453,
    "title": "Hydroelectric Turbine",
    "category_id": 15610,
    "category": "Fragment",
    "icon": "fragment",
    "lat": 0.80330248227203,
    "lon": -0.97648647204832,
    "stitched_x": 5007.11,
    "stitched_y": 7024.54,
    "crop_x": 2293.11,
    "crop_y": 1424.54,
    "paste_x": 2252,
    "paste_y": 1315,
    "sprite_rect": {
      "height": 88,
      "pixelRatio": 2,
      "width": 66,
      "x": 132,
      "y": 176
    }
  },
  {
    "id": 590048,
    "title": "Tadpole",
    "category_id": 15610,
    "category": "Fragment",
    "icon": "fragment",
    "lat": 0.84106963523541,
    "lon": -0.98352035866304,
    "stitched_x": 4925.16,
    "stitched_y": 6584.48,
    "crop_x": 2211.16,
    "crop_y": 984.48,
    "paste_x": 2170,
    "paste_y": 874,
    "sprite_rect": {
      "height": 88,
      "pixelRatio": 2,
      "width": 66,
      "x": 132,
      "y": 176
    }
  },
  {
    "id": 590049,
    "title": "Bioreactor",
    "category_id": 15610,
    "category": "Fragment",
    "icon": "fragment",
    "lat": 0.83981288994171,
    "lon": -0.98611350717346,
    "stitched_x": 4894.94,
    "stitched_y": 6599.12,
    "crop_x": 2180.94,
    "crop_y": 999.12,
    "paste_x": 2140,
    "paste_y": 889,
    "sprite_rect": {
      "height": 88,
      "pixelRatio": 2,
      "width": 66,
      "x": 132,
      "y": 176
    }
  },
  {
    "id": 590070,
    "title": "Wakemaker",
    "category_id": 15610,
    "category": "Fragment",
    "icon": "fragment",
    "lat": 0.7279674042101,
    "lon": -0.99627478349632,
    "stitched_x": 4776.56,
    "stitched_y": 7902.34,
    "crop_x": 2062.56,
    "crop_y": 2302.34,
    "paste_x": 2022,
    "paste_y": 2192,
    "sprite_rect": {
      "height": 88,
      "pixelRatio": 2,
      "width": 66,
      "x": 132,
      "y": 176
    }
  },
  {
    "id": 590071,
    "title": "Flashlight",
    "category_id": 15610,
    "category": "Fragment",
    "icon": "fragment",
    "lat": 0.72875245752562,
    "lon": -0.99446663192393,
    "stitched_x": 4797.62,
    "stitched_y": 7893.19,
    "crop_x": 2083.62,
    "crop_y": 2293.19,
    "paste_x": 2043,
    "paste_y": 2183,
    "sprite_rect": {
      "height": 88,
      "pixelRatio": 2,
      "width": 66,
      "x": 132,
      "y": 176
    }
  },
  {
    "id": 590072,
    "title": "Flashlight",
    "category_id": 15610,
    "category": "Fragment",
    "icon": "fragment",
    "lat": 0.73009372383159,
    "lon": -1.0091395941022,
    "stitched_x": 4626.67,
    "stitched_y": 7877.56,
    "crop_x": 1912.67,
    "crop_y": 2277.56,
    "paste_x": 1872,
    "paste_y": 2168,
    "sprite_rect": {
      "height": 88,
      "pixelRatio": 2,
      "width": 66,
      "x": 132,
      "y": 176
    }
  },
  {
    "id": 590073,
    "title": "Habitat Builder",
    "category_id": 15610,
    "category": "Fragment",
    "icon": "fragment",
    "lat": 0.73392534692843,
    "lon": -0.99969277040145,
    "stitched_x": 4736.74,
    "stitched_y": 7832.92,
    "crop_x": 2022.74,
    "crop_y": 2232.92,
    "paste_x": 1982,
    "paste_y": 2123,
    "sprite_rect": {
      "height": 88,
      "pixelRatio": 2,
      "width": 66,
      "x": 132,
      "y": 176
    }
  },
  {
    "id": 590074,
    "title": "Habitat Builder",
    "category_id": 15610,
    "category": "Fragment",
    "icon": "fragment",
    "lat": 0.71094762967459,
    "lon": -1.0158072072469,
    "stitched_x": 4548.99,
    "stitched_y": 8100.65,
    "crop_x": 1834.99,
    "crop_y": 2500.65,
    "paste_x": 1794,
    "paste_y": 2391,
    "sprite_rect": {
      "height": 88,
      "pixelRatio": 2,
      "width": 66,
      "x": 132,
      "y": 176
    }
  },
  {
    "id": 590075,
    "title": "Flashlight",
    "category_id": 15610,
    "category": "Fragment",
    "icon": "fragment",
    "lat": 0.71125135909269,
    "lon": -1.0161109600598,
    "stitched_x": 4545.45,
    "stitched_y": 8097.11,
    "crop_x": 1831.45,
    "crop_y": 2497.11,
    "paste_x": 1790,
    "paste_y": 2387,
    "sprite_rect": {
      "height": 88,
      "pixelRatio": 2,
      "width": 66,
      "x": 132,
      "y": 176
    }
  },
  {
    "id": 590077,
    "title": "Portable Oxygen Generator",
    "category_id": 15610,
    "category": "Fragment",
    "icon": "fragment",
    "lat": 0.61374813151076,
    "lon": -1.0499843428219,
    "stitched_x": 4150.8,
    "stitched_y": 9233.18,
    "crop_x": 1436.8,
    "crop_y": 3633.18,
    "paste_x": 1396,
    "paste_y": 3523,
    "sprite_rect": {
      "height": 88,
      "pixelRatio": 2,
      "width": 66,
      "x": 132,
      "y": 176
    }
  },
  {
    "id": 590079,
    "title": "Sonic Resonator",
    "category_id": 15610,
    "category": "Fragment",
    "icon": "fragment",
    "lat": 0.72572023425577,
    "lon": -1.0949062226503,
    "stitched_x": 3627.42,
    "stitched_y": 7928.52,
    "crop_x": 913.42,
    "crop_y": 2328.52,
    "paste_x": 872,
    "paste_y": 2219,
    "sprite_rect": {
      "height": 88,
      "pixelRatio": 2,
      "width": 66,
      "x": 132,
      "y": 176
    }
  },
  {
    "id": 590081,
    "title": "Beacon",
    "category_id": 15610,
    "category": "Fragment",
    "icon": "fragment",
    "lat": 0.69096692556437,
    "lon": -1.0640248568266,
    "stitched_x": 3987.21,
    "stitched_y": 8333.46,
    "crop_x": 1273.21,
    "crop_y": 2733.46,
    "paste_x": 1232,
    "paste_y": 2623,
    "sprite_rect": {
      "height": 88,
      "pixelRatio": 2,
      "width": 66,
      "x": 132,
      "y": 176
    }
  },
  {
    "id": 590082,
    "title": "Dive Elevator",
    "category_id": 15610,
    "category": "Fragment",
    "icon": "fragment",
    "lat": 0.6788522919172,
    "lon": -1.0239758737672,
    "stitched_x": 4453.82,
    "stitched_y": 8474.61,
    "crop_x": 1739.82,
    "crop_y": 2874.61,
    "paste_x": 1699,
    "paste_y": 2765,
    "sprite_rect": {
      "height": 88,
      "pixelRatio": 2,
      "width": 66,
      "x": 132,
      "y": 176
    }
  },
  {
    "id": 590083,
    "title": "Beacon",
    "category_id": 15610,
    "category": "Fragment",
    "icon": "fragment",
    "lat": 0.67562715217187,
    "lon": -1.0209550440459,
    "stitched_x": 4489.01,
    "stitched_y": 8512.19,
    "crop_x": 1775.01,
    "crop_y": 2912.19,
    "paste_x": 1734,
    "paste_y": 2802,
    "sprite_rect": {
      "height": 88,
      "pixelRatio": 2,
      "width": 66,
      "x": 132,
      "y": 176
    }
  },
  {
    "id": 590084,
    "title": "Tadpole",
    "category_id": 15610,
    "category": "Fragment",
    "icon": "fragment",
    "lat": 0.67707915900891,
    "lon": -1.0281588708649,
    "stitched_x": 4405.08,
    "stitched_y": 8495.27,
    "crop_x": 1691.08,
    "crop_y": 2895.27,
    "paste_x": 1650,
    "paste_y": 2785,
    "sprite_rect": {
      "height": 88,
      "pixelRatio": 2,
      "width": 66,
      "x": 132,
      "y": 176
    }
  },
  {
    "id": 590085,
    "title": "Hydroelectric Turbine",
    "category_id": 15610,
    "category": "Fragment",
    "icon": "fragment",
    "lat": 0.66440425141671,
    "lon": -1.0177802990644,
    "stitched_x": 4526.0,
    "stitched_y": 8642.96,
    "crop_x": 1812.0,
    "crop_y": 3042.96,
    "paste_x": 1771,
    "paste_y": 2933,
    "sprite_rect": {
      "height": 88,
      "pixelRatio": 2,
      "width": 66,
      "x": 132,
      "y": 176
    }
  },
  {
    "id": 590087,
    "title": "Tadpole",
    "category_id": 15610,
    "category": "Fragment",
    "icon": "fragment",
    "lat": 0.61193345540137,
    "lon": -1.0551001885984,
    "stitched_x": 4091.19,
    "stitched_y": 9254.32,
    "crop_x": 1377.19,
    "crop_y": 3654.32,
    "paste_x": 1336,
    "paste_y": 3544,
    "sprite_rect": {
      "height": 88,
      "pixelRatio": 2,
      "width": 66,
      "x": 132,
      "y": 176
    }
  },
  {
    "id": 590106,
    "title": "Dive Elevator",
    "category_id": 15610,
    "category": "Fragment",
    "icon": "fragment",
    "lat": 0.62796788509779,
    "lon": -1.0867390410497,
    "stitched_x": 3722.57,
    "stitched_y": 9067.5,
    "crop_x": 1008.57,
    "crop_y": 3467.5,
    "paste_x": 968,
    "paste_y": 3357,
    "sprite_rect": {
      "height": 88,
      "pixelRatio": 2,
      "width": 66,
      "x": 132,
      "y": 176
    }
  },
  {
    "id": 590108,
    "title": "Bioreactor",
    "category_id": 15610,
    "category": "Fragment",
    "icon": "fragment",
    "lat": 0.62399535432642,
    "lon": -1.0883594548783,
    "stitched_x": 3703.69,
    "stitched_y": 9113.78,
    "crop_x": 989.69,
    "crop_y": 3513.78,
    "paste_x": 949,
    "paste_y": 3404,
    "sprite_rect": {
      "height": 88,
      "pixelRatio": 2,
      "width": 66,
      "x": 132,
      "y": 176
    }
  },
  {
    "id": 590120,
    "title": "Dive Elevator",
    "category_id": 15610,
    "category": "Fragment",
    "icon": "fragment",
    "lat": 0.6401841921405,
    "lon": -1.0652470850631,
    "stitched_x": 3972.97,
    "stitched_y": 8925.16,
    "crop_x": 1258.97,
    "crop_y": 3325.16,
    "paste_x": 1218,
    "paste_y": 3215,
    "sprite_rect": {
      "height": 88,
      "pixelRatio": 2,
      "width": 66,
      "x": 132,
      "y": 176
    }
  },
  {
    "id": 590181,
    "title": "Portable Oxygen Generator",
    "category_id": 15610,
    "category": "Fragment",
    "icon": "fragment",
    "lat": 0.61293880703612,
    "lon": -1.0488719272597,
    "stitched_x": 4163.76,
    "stitched_y": 9242.61,
    "crop_x": 1449.76,
    "crop_y": 3642.61,
    "paste_x": 1409,
    "paste_y": 3533,
    "sprite_rect": {
      "height": 88,
      "pixelRatio": 2,
      "width": 66,
      "x": 132,
      "y": 176
    }
  },
  {
    "id": 590184,
    "title": "Beacon",
    "category_id": 15610,
    "category": "Fragment",
    "icon": "fragment",
    "lat": 0.66887181569865,
    "lon": -1.0721495763051,
    "stitched_x": 3892.55,
    "stitched_y": 8590.9,
    "crop_x": 1178.55,
    "crop_y": 2990.9,
    "paste_x": 1138,
    "paste_y": 2881,
    "sprite_rect": {
      "height": 88,
      "pixelRatio": 2,
      "width": 66,
      "x": 132,
      "y": 176
    }
  },
  {
    "id": 590185,
    "title": "Dive Elevator",
    "category_id": 15610,
    "category": "Fragment",
    "icon": "fragment",
    "lat": 0.66861688583096,
    "lon": -1.0704756829915,
    "stitched_x": 3912.05,
    "stitched_y": 8593.87,
    "crop_x": 1198.05,
    "crop_y": 2993.87,
    "paste_x": 1157,
    "paste_y": 2884,
    "sprite_rect": {
      "height": 88,
      "pixelRatio": 2,
      "width": 66,
      "x": 132,
      "y": 176
    }
  },
  {
    "id": 590190,
    "title": "Dive Elevator",
    "category_id": 15610,
    "category": "Fragment",
    "icon": "fragment",
    "lat": 0.6635608502047,
    "lon": -1.0689765163978,
    "stitched_x": 3929.52,
    "stitched_y": 8652.78,
    "crop_x": 1215.52,
    "crop_y": 3052.78,
    "paste_x": 1175,
    "paste_y": 2943,
    "sprite_rect": {
      "height": 88,
      "pixelRatio": 2,
      "width": 66,
      "x": 132,
      "y": 176
    }
  },
  {
    "id": 591096,
    "title": "Tadpole",
    "category_id": 15610,
    "category": "Fragment",
    "icon": "fragment",
    "lat": 0.83441862488667,
    "lon": -1.0307985915375,
    "stitched_x": 4374.33,
    "stitched_y": 6661.97,
    "crop_x": 1660.33,
    "crop_y": 1061.97,
    "paste_x": 1619,
    "paste_y": 952,
    "sprite_rect": {
      "height": 88,
      "pixelRatio": 2,
      "width": 66,
      "x": 132,
      "y": 176
    }
  },
  {
    "id": 591098,
    "title": "Hydroelectric Turbine",
    "category_id": 15610,
    "category": "Fragment",
    "icon": "fragment",
    "lat": 0.807030255962,
    "lon": -1.0216815629912,
    "stitched_x": 4480.55,
    "stitched_y": 6981.11,
    "crop_x": 1766.55,
    "crop_y": 1381.11,
    "paste_x": 1726,
    "paste_y": 1271,
    "sprite_rect": {
      "height": 88,
      "pixelRatio": 2,
      "width": 66,
      "x": 132,
      "y": 176
    }
  },
  {
    "id": 591099,
    "title": "Power Transmitter",
    "category_id": 15610,
    "category": "Fragment",
    "icon": "fragment",
    "lat": 0.80870995757492,
    "lon": -1.0452098615532,
    "stitched_x": 4206.42,
    "stitched_y": 6961.53,
    "crop_x": 1492.42,
    "crop_y": 1361.53,
    "paste_x": 1451,
    "paste_y": 1252,
    "sprite_rect": {
      "height": 88,
      "pixelRatio": 2,
      "width": 66,
      "x": 132,
      "y": 176
    }
  },
  {
    "id": 591100,
    "title": "Wakemaker",
    "category_id": 15610,
    "category": "Fragment",
    "icon": "fragment",
    "lat": 0.7432644238452,
    "lon": -1.0730380672774,
    "stitched_x": 3882.2,
    "stitched_y": 7724.1,
    "crop_x": 1168.2,
    "crop_y": 2124.1,
    "paste_x": 1127,
    "paste_y": 2014,
    "sprite_rect": {
      "height": 88,
      "pixelRatio": 2,
      "width": 66,
      "x": 132,
      "y": 176
    }
  },
  {
    "id": 591101,
    "title": "Beacon",
    "category_id": 15610,
    "category": "Fragment",
    "icon": "fragment",
    "lat": 0.72480202424312,
    "lon": -1.0520606389196,
    "stitched_x": 4126.61,
    "stitched_y": 7939.22,
    "crop_x": 1412.61,
    "crop_y": 2339.22,
    "paste_x": 1372,
    "paste_y": 2229,
    "sprite_rect": {
      "height": 88,
      "pixelRatio": 2,
      "width": 66,
      "x": 132,
      "y": 176
    }
  },
  {
    "id": 591102,
    "title": "Wakemaker",
    "category_id": 15610,
    "category": "Fragment",
    "icon": "fragment",
    "lat": 0.72634136253043,
    "lon": -1.0515161107258,
    "stitched_x": 4132.95,
    "stitched_y": 7921.28,
    "crop_x": 1418.95,
    "crop_y": 2321.28,
    "paste_x": 1378,
    "paste_y": 2211,
    "sprite_rect": {
      "height": 88,
      "pixelRatio": 2,
      "width": 66,
      "x": 132,
      "y": 176
    }
  },
  {
    "id": 591103,
    "title": "Wakemaker",
    "category_id": 15610,
    "category": "Fragment",
    "icon": "fragment",
    "lat": 0.71813003425071,
    "lon": -1.0726950404154,
    "stitched_x": 3886.2,
    "stitched_y": 8016.96,
    "crop_x": 1172.2,
    "crop_y": 2416.96,
    "paste_x": 1131,
    "paste_y": 2307,
    "sprite_rect": {
      "height": 88,
      "pixelRatio": 2,
      "width": 66,
      "x": 132,
      "y": 176
    }
  },
  {
    "id": 591104,
    "title": "Flashlight",
    "category_id": 15610,
    "category": "Fragment",
    "icon": "fragment",
    "lat": 0.71283683265847,
    "lon": -1.0713546309596,
    "stitched_x": 3901.81,
    "stitched_y": 8078.63,
    "crop_x": 1187.81,
    "crop_y": 2478.63,
    "paste_x": 1147,
    "paste_y": 2369,
    "sprite_rect": {
      "height": 88,
      "pixelRatio": 2,
      "width": 66,
      "x": 132,
      "y": 176
    }
  },
  {
    "id": 591105,
    "title": "Habitat Builder",
    "category_id": 15610,
    "category": "Fragment",
    "icon": "fragment",
    "lat": 0.71135696079317,
    "lon": -1.0615178663825,
    "stitched_x": 4016.42,
    "stitched_y": 8095.88,
    "crop_x": 1302.42,
    "crop_y": 2495.88,
    "paste_x": 1261,
    "paste_y": 2386,
    "sprite_rect": {
      "height": 88,
      "pixelRatio": 2,
      "width": 66,
      "x": 132,
      "y": 176
    }
  },
  {
    "id": 591106,
    "title": "Wakemaker",
    "category_id": 15610,
    "category": "Fragment",
    "icon": "fragment",
    "lat": 0.68466415929652,
    "lon": -1.1015516094824,
    "stitched_x": 3549.99,
    "stitched_y": 8406.89,
    "crop_x": 835.99,
    "crop_y": 2806.89,
    "paste_x": 795,
    "paste_y": 2697,
    "sprite_rect": {
      "height": 88,
      "pixelRatio": 2,
      "width": 66,
      "x": 132,
      "y": 176
    }
  },
  {
    "id": 591107,
    "title": "Sonic Resonator",
    "category_id": 15610,
    "category": "Fragment",
    "icon": "fragment",
    "lat": 0.6826744119121,
    "lon": -1.0867750790374,
    "stitched_x": 3722.15,
    "stitched_y": 8430.08,
    "crop_x": 1008.15,
    "crop_y": 2830.08,
    "paste_x": 967,
    "paste_y": 2720,
    "sprite_rect": {
      "height": 88,
      "pixelRatio": 2,
      "width": 66,
      "x": 132,
      "y": 176
    }
  },
  {
    "id": 591108,
    "title": "Wakemaker",
    "category_id": 15610,
    "category": "Fragment",
    "icon": "fragment",
    "lat": 0.74637685634356,
    "lon": -1.0180116357027,
    "stitched_x": 4523.3,
    "stitched_y": 7687.83,
    "crop_x": 1809.3,
    "crop_y": 2087.83,
    "paste_x": 1768,
    "paste_y": 1978,
    "sprite_rect": {
      "height": 88,
      "pixelRatio": 2,
      "width": 66,
      "x": 132,
      "y": 176
    }
  },
  {
    "id": 591109,
    "title": "Habitat Builder",
    "category_id": 15610,
    "category": "Fragment",
    "icon": "fragment",
    "lat": 0.77368787232751,
    "lon": -1.0023692591691,
    "stitched_x": 4705.55,
    "stitched_y": 7369.61,
    "crop_x": 1991.55,
    "crop_y": 1769.61,
    "paste_x": 1951,
    "paste_y": 1660,
    "sprite_rect": {
      "height": 88,
      "pixelRatio": 2,
      "width": 66,
      "x": 132,
      "y": 176
    }
  },
  {
    "id": 591110,
    "title": "Wakemaker",
    "category_id": 15610,
    "category": "Fragment",
    "icon": "fragment",
    "lat": 0.6821651068157,
    "lon": -0.96631235393346,
    "stitched_x": 5125.65,
    "stitched_y": 8436.01,
    "crop_x": 2411.65,
    "crop_y": 2836.01,
    "paste_x": 2371,
    "paste_y": 2726,
    "sprite_rect": {
      "height": 88,
      "pixelRatio": 2,
      "width": 66,
      "x": 132,
      "y": 176
    }
  },
  {
    "id": 591111,
    "title": "Wakemaker",
    "category_id": 15610,
    "category": "Fragment",
    "icon": "fragment",
    "lat": 0.77013690661349,
    "lon": -1.0050476427125,
    "stitched_x": 4674.35,
    "stitched_y": 7410.98,
    "crop_x": 1960.35,
    "crop_y": 1810.98,
    "paste_x": 1919,
    "paste_y": 1701,
    "sprite_rect": {
      "height": 88,
      "pixelRatio": 2,
      "width": 66,
      "x": 132,
      "y": 176
    }
  },
  {
    "id": 591113,
    "title": "Flashlight",
    "category_id": 15610,
    "category": "Fragment",
    "icon": "fragment",
    "lat": 0.71035802717054,
    "lon": -1.0247905973997,
    "stitched_x": 4444.32,
    "stitched_y": 8107.52,
    "crop_x": 1730.32,
    "crop_y": 2507.52,
    "paste_x": 1689,
    "paste_y": 2398,
    "sprite_rect": {
      "height": 88,
      "pixelRatio": 2,
      "width": 66,
      "x": 132,
      "y": 176
    }
  },
  {
    "id": 591115,
    "title": "Repair Tool",
    "category_id": 15610,
    "category": "Fragment",
    "icon": "fragment",
    "lat": 0.63434240289607,
    "lon": -0.93720328606983,
    "stitched_x": 5464.79,
    "stitched_y": 8993.22,
    "crop_x": 2750.79,
    "crop_y": 3393.22,
    "paste_x": 2710,
    "paste_y": 3283,
    "sprite_rect": {
      "height": 88,
      "pixelRatio": 2,
      "width": 66,
      "x": 132,
      "y": 176
    }
  },
  {
    "id": 591474,
    "title": "Tailing Table",
    "category_id": 15610,
    "category": "Fragment",
    "icon": "fragment",
    "lat": 0.63768471007337,
    "lon": -1.0590568184867,
    "stitched_x": 4045.09,
    "stitched_y": 8954.28,
    "crop_x": 1331.09,
    "crop_y": 3354.28,
    "paste_x": 1290,
    "paste_y": 3244,
    "sprite_rect": {
      "height": 88,
      "pixelRatio": 2,
      "width": 66,
      "x": 132,
      "y": 176
    }
  },
  {
    "id": 591482,
    "title": "Flashlight",
    "category_id": 15610,
    "category": "Fragment",
    "icon": "fragment",
    "lat": 0.67404911011974,
    "lon": -1.0180167869471,
    "stitched_x": 4523.24,
    "stitched_y": 8530.58,
    "crop_x": 1809.24,
    "crop_y": 2930.58,
    "paste_x": 1768,
    "paste_y": 2821,
    "sprite_rect": {
      "height": 88,
      "pixelRatio": 2,
      "width": 66,
      "x": 132,
      "y": 176
    }
  },
  {
    "id": 591484,
    "title": "Dive Elevator",
    "category_id": 15610,
    "category": "Fragment",
    "icon": "fragment",
    "lat": 0.62064532836523,
    "lon": -0.98616175353484,
    "stitched_x": 4894.38,
    "stitched_y": 9152.82,
    "crop_x": 2180.38,
    "crop_y": 3552.82,
    "paste_x": 2139,
    "paste_y": 3443,
    "sprite_rect": {
      "height": 88,
      "pixelRatio": 2,
      "width": 66,
      "x": 132,
      "y": 176
    }
  },
  {
    "id": 591485,
    "title": "Bioreactor",
    "category_id": 15610,
    "category": "Fragment",
    "icon": "fragment",
    "lat": 0.62198110740721,
    "lon": -0.98351393900188,
    "stitched_x": 4925.23,
    "stitched_y": 9137.25,
    "crop_x": 2211.23,
    "crop_y": 3537.25,
    "paste_x": 2170,
    "paste_y": 3427,
    "sprite_rect": {
      "height": 88,
      "pixelRatio": 2,
      "width": 66,
      "x": 132,
      "y": 176
    }
  },
  {
    "id": 591486,
    "title": "Rebreather",
    "category_id": 15610,
    "category": "Fragment",
    "icon": "fragment",
    "lat": 0.6214567056943,
    "lon": -0.98649492423121,
    "stitched_x": 4890.5,
    "stitched_y": 9143.36,
    "crop_x": 2176.5,
    "crop_y": 3543.36,
    "paste_x": 2136,
    "paste_y": 3433,
    "sprite_rect": {
      "height": 88,
      "pixelRatio": 2,
      "width": 66,
      "x": 132,
      "y": 176
    }
  },
  {
    "id": 591494,
    "title": "Beacon",
    "category_id": 15610,
    "category": "Fragment",
    "icon": "fragment",
    "lat": 0.68597968894119,
    "lon": -0.99589515477541,
    "stitched_x": 4780.98,
    "stitched_y": 8391.57,
    "crop_x": 2066.98,
    "crop_y": 2791.57,
    "paste_x": 2026,
    "paste_y": 2682,
    "sprite_rect": {
      "height": 88,
      "pixelRatio": 2,
      "width": 66,
      "x": 132,
      "y": 176
    }
  },
  {
    "id": 591495,
    "title": "Habitat Builder",
    "category_id": 15610,
    "category": "Fragment",
    "icon": "fragment",
    "lat": 0.68722045679417,
    "lon": -1.0006067901851,
    "stitched_x": 4726.09,
    "stitched_y": 8377.11,
    "crop_x": 2012.09,
    "crop_y": 2777.11,
    "paste_x": 1971,
    "paste_y": 2667,
    "sprite_rect": {
      "height": 88,
      "pixelRatio": 2,
      "width": 66,
      "x": 132,
      "y": 176
    }
  },
  {
    "id": 591497,
    "title": "Flashlight",
    "category_id": 15610,
    "category": "Fragment",
    "icon": "fragment",
    "lat": 0.691370236995,
    "lon": -0.98994463220123,
    "stitched_x": 4850.31,
    "stitched_y": 8328.76,
    "crop_x": 2136.31,
    "crop_y": 2728.76,
    "paste_x": 2095,
    "paste_y": 2619,
    "sprite_rect": {
      "height": 88,
      "pixelRatio": 2,
      "width": 66,
      "x": 132,
      "y": 176
    }
  },
  {
    "id": 591498,
    "title": "Work Light",
    "category_id": 15610,
    "category": "Fragment",
    "icon": "fragment",
    "lat": 0.69088430053397,
    "lon": -0.98853000421755,
    "stitched_x": 4866.79,
    "stitched_y": 8334.42,
    "crop_x": 2152.79,
    "crop_y": 2734.42,
    "paste_x": 2112,
    "paste_y": 2624,
    "sprite_rect": {
      "height": 88,
      "pixelRatio": 2,
      "width": 66,
      "x": 132,
      "y": 176
    }
  },
  {
    "id": 591499,
    "title": "Habitat Builder",
    "category_id": 15610,
    "category": "Fragment",
    "icon": "fragment",
    "lat": 0.69162316520229,
    "lon": -0.99164038978645,
    "stitched_x": 4830.55,
    "stitched_y": 8325.81,
    "crop_x": 2116.55,
    "crop_y": 2725.81,
    "paste_x": 2076,
    "paste_y": 2616,
    "sprite_rect": {
      "height": 88,
      "pixelRatio": 2,
      "width": 66,
      "x": 132,
      "y": 176
    }
  },
  {
    "id": 591512,
    "title": "Habitat Builder",
    "category_id": 15610,
    "category": "Fragment",
    "icon": "fragment",
    "lat": 0.71771142634235,
    "lon": -0.977385940983,
    "stitched_x": 4996.63,
    "stitched_y": 8021.84,
    "crop_x": 2282.63,
    "crop_y": 2421.84,
    "paste_x": 2242,
    "paste_y": 2312,
    "sprite_rect": {
      "height": 88,
      "pixelRatio": 2,
      "width": 66,
      "x": 132,
      "y": 176
    }
  },
  {
    "id": 591520,
    "title": "Flashlight",
    "category_id": 15610,
    "category": "Fragment",
    "icon": "fragment",
    "lat": 0.70551066458849,
    "lon": -0.97274980030096,
    "stitched_x": 5050.64,
    "stitched_y": 8164.0,
    "crop_x": 2336.64,
    "crop_y": 2564.0,
    "paste_x": 2296,
    "paste_y": 2454,
    "sprite_rect": {
      "height": 88,
      "pixelRatio": 2,
      "width": 66,
      "x": 132,
      "y": 176
    }
  },
  {
    "id": 591528,
    "title": "Habitat Builder",
    "category_id": 15610,
    "category": "Fragment",
    "icon": "fragment",
    "lat": 0.70779340364533,
    "lon": -0.98315417306046,
    "stitched_x": 4929.42,
    "stitched_y": 8137.4,
    "crop_x": 2215.42,
    "crop_y": 2537.4,
    "paste_x": 2174,
    "paste_y": 2427,
    "sprite_rect": {
      "height": 88,
      "pixelRatio": 2,
      "width": 66,
      "x": 132,
      "y": 176
    }
  },
  {
    "id": 591529,
    "title": "Spotlight",
    "category_id": 15610,
    "category": "Fragment",
    "icon": "fragment",
    "lat": 0.70807788143459,
    "lon": -0.98251513726717,
    "stitched_x": 4936.87,
    "stitched_y": 8134.08,
    "crop_x": 2222.87,
    "crop_y": 2534.08,
    "paste_x": 2182,
    "paste_y": 2424,
    "sprite_rect": {
      "height": 88,
      "pixelRatio": 2,
      "width": 66,
      "x": 132,
      "y": 176
    }
  },
  {
    "id": 591531,
    "title": "Wakemaker",
    "category_id": 15610,
    "category": "Fragment",
    "icon": "fragment",
    "lat": 0.72828575214557,
    "lon": -0.97356093844235,
    "stitched_x": 5041.19,
    "stitched_y": 7898.63,
    "crop_x": 2327.19,
    "crop_y": 2298.63,
    "paste_x": 2286,
    "paste_y": 2189,
    "sprite_rect": {
      "height": 88,
      "pixelRatio": 2,
      "width": 66,
      "x": 132,
      "y": 176
    }
  },
  {
    "id": 591534,
    "title": "Beacon",
    "category_id": 15610,
    "category": "Fragment",
    "icon": "fragment",
    "lat": 0.70309585658039,
    "lon": -1.0069952893703,
    "stitched_x": 4651.65,
    "stitched_y": 8192.13,
    "crop_x": 1937.65,
    "crop_y": 2592.13,
    "paste_x": 1897,
    "paste_y": 2482,
    "sprite_rect": {
      "height": 88,
      "pixelRatio": 2,
      "width": 66,
      "x": 132,
      "y": 176
    }
  },
  {
    "id": 591542,
    "title": "Beacon",
    "category_id": 15610,
    "category": "Fragment",
    "icon": "fragment",
    "lat": 0.7168366271077,
    "lon": -0.98983876594983,
    "stitched_x": 4851.54,
    "stitched_y": 8032.03,
    "crop_x": 2137.54,
    "crop_y": 2432.03,
    "paste_x": 2097,
    "paste_y": 2322,
    "sprite_rect": {
      "height": 88,
      "pixelRatio": 2,
      "width": 66,
      "x": 132,
      "y": 176
    }
  },
  {
    "id": 591543,
    "title": "Wall Rack",
    "category_id": 15610,
    "category": "Fragment",
    "icon": "fragment",
    "lat": 0.74719084099446,
    "lon": -0.97705884965191,
    "stitched_x": 5000.44,
    "stitched_y": 7678.35,
    "crop_x": 2286.44,
    "crop_y": 2078.35,
    "paste_x": 2245,
    "paste_y": 1968,
    "sprite_rect": {
      "height": 88,
      "pixelRatio": 2,
      "width": 66,
      "x": 132,
      "y": 176
    }
  },
  {
    "id": 591544,
    "title": "Wakemaker",
    "category_id": 15610,
    "category": "Fragment",
    "icon": "fragment",
    "lat": 0.74711837580496,
    "lon": -0.97879816208069,
    "stitched_x": 4980.17,
    "stitched_y": 7679.19,
    "crop_x": 2266.17,
    "crop_y": 2079.19,
    "paste_x": 2225,
    "paste_y": 1969,
    "sprite_rect": {
      "height": 88,
      "pixelRatio": 2,
      "width": 66,
      "x": 132,
      "y": 176
    }
  },
  {
    "id": 591545,
    "title": "Hydroelectric Turbine",
    "category_id": 15610,
    "category": "Fragment",
    "icon": "fragment",
    "lat": 0.74991430618962,
    "lon": -0.96028956636849,
    "stitched_x": 5195.82,
    "stitched_y": 7646.62,
    "crop_x": 2481.82,
    "crop_y": 2046.62,
    "paste_x": 2441,
    "paste_y": 1937,
    "sprite_rect": {
      "height": 88,
      "pixelRatio": 2,
      "width": 66,
      "x": 132,
      "y": 176
    }
  },
  {
    "id": 591546,
    "title": "Power Cell Terminal",
    "category_id": 15610,
    "category": "Fragment",
    "icon": "fragment",
    "lat": 0.75024597587704,
    "lon": -0.96177117549522,
    "stitched_x": 5178.55,
    "stitched_y": 7642.75,
    "crop_x": 2464.55,
    "crop_y": 2042.75,
    "paste_x": 2424,
    "paste_y": 1933,
    "sprite_rect": {
      "height": 88,
      "pixelRatio": 2,
      "width": 66,
      "x": 132,
      "y": 176
    }
  },
  {
    "id": 591547,
    "title": "Tadpole",
    "category_id": 15610,
    "category": "Fragment",
    "icon": "fragment",
    "lat": 0.74914663255419,
    "lon": -0.96219478543222,
    "stitched_x": 5173.62,
    "stitched_y": 7655.56,
    "crop_x": 2459.62,
    "crop_y": 2055.56,
    "paste_x": 2419,
    "paste_y": 1946,
    "sprite_rect": {
      "height": 88,
      "pixelRatio": 2,
      "width": 66,
      "x": 132,
      "y": 176
    }
  },
  {
    "id": 591548,
    "title": "Power Transmitter",
    "category_id": 15610,
    "category": "Fragment",
    "icon": "fragment",
    "lat": 0.74944106982261,
    "lon": -0.96272157292046,
    "stitched_x": 5167.48,
    "stitched_y": 7652.13,
    "crop_x": 2453.48,
    "crop_y": 2052.13,
    "paste_x": 2412,
    "paste_y": 1942,
    "sprite_rect": {
      "height": 88,
      "pixelRatio": 2,
      "width": 66,
      "x": 132,
      "y": 176
    }
  },
  {
    "id": 591549,
    "title": "Habitat Builder",
    "category_id": 15610,
    "category": "Fragment",
    "icon": "fragment",
    "lat": 0.75282677248265,
    "lon": -1.0038261772951,
    "stitched_x": 4688.58,
    "stitched_y": 7612.68,
    "crop_x": 1974.58,
    "crop_y": 2012.68,
    "paste_x": 1934,
    "paste_y": 1903,
    "sprite_rect": {
      "height": 88,
      "pixelRatio": 2,
      "width": 66,
      "x": 132,
      "y": 176
    }
  },
  {
    "id": 591551,
    "title": "Bioreactor",
    "category_id": 15610,
    "category": "Fragment",
    "icon": "fragment",
    "lat": 0.75422824071302,
    "lon": -0.94581352990588,
    "stitched_x": 5364.47,
    "stitched_y": 7596.35,
    "crop_x": 2650.47,
    "crop_y": 1996.35,
    "paste_x": 2609,
    "paste_y": 1886,
    "sprite_rect": {
      "height": 88,
      "pixelRatio": 2,
      "width": 66,
      "x": 132,
      "y": 176
    }
  },
  {
    "id": 591552,
    "title": "Wall Rack",
    "category_id": 15610,
    "category": "Fragment",
    "icon": "fragment",
    "lat": 0.73490586746244,
    "lon": -0.9983413598855,
    "stitched_x": 4752.48,
    "stitched_y": 7821.49,
    "crop_x": 2038.48,
    "crop_y": 2221.49,
    "paste_x": 1997,
    "paste_y": 2111,
    "sprite_rect": {
      "height": 88,
      "pixelRatio": 2,
      "width": 66,
      "x": 132,
      "y": 176
    }
  },
  {
    "id": 591554,
    "title": "Flashlight",
    "category_id": 15610,
    "category": "Fragment",
    "icon": "fragment",
    "lat": 0.74815143907016,
    "lon": -1.0205615292346,
    "stitched_x": 4493.6,
    "stitched_y": 7667.16,
    "crop_x": 1779.6,
    "crop_y": 2067.16,
    "paste_x": 1739,
    "paste_y": 1957,
    "sprite_rect": {
      "height": 88,
      "pixelRatio": 2,
      "width": 66,
      "x": 132,
      "y": 176
    }
  },
  {
    "id": 591555,
    "title": "Beacon",
    "category_id": 15610,
    "category": "Fragment",
    "icon": "fragment",
    "lat": 0.7482310506816,
    "lon": -1.0184767896244,
    "stitched_x": 4517.89,
    "stitched_y": 7666.23,
    "crop_x": 1803.89,
    "crop_y": 2066.23,
    "paste_x": 1763,
    "paste_y": 1956,
    "sprite_rect": {
      "height": 88,
      "pixelRatio": 2,
      "width": 66,
      "x": 132,
      "y": 176
    }
  },
  {
    "id": 591558,
    "title": "Wall Rack",
    "category_id": 15610,
    "category": "Fragment",
    "icon": "fragment",
    "lat": 0.77061263122654,
    "lon": -1.005803570152,
    "stitched_x": 4665.54,
    "stitched_y": 7405.44,
    "crop_x": 1951.54,
    "crop_y": 1805.44,
    "paste_x": 1911,
    "paste_y": 1695,
    "sprite_rect": {
      "height": 88,
      "pixelRatio": 2,
      "width": 66,
      "x": 132,
      "y": 176
    }
  },
  {
    "id": 591559,
    "title": "Rectangular Ceiling Light",
    "category_id": 15610,
    "category": "Fragment",
    "icon": "fragment",
    "lat": 0.7754466059324,
    "lon": -1.0163483704436,
    "stitched_x": 4542.68,
    "stitched_y": 7349.12,
    "crop_x": 1828.68,
    "crop_y": 1749.12,
    "paste_x": 1788,
    "paste_y": 1639,
    "sprite_rect": {
      "height": 88,
      "pixelRatio": 2,
      "width": 66,
      "x": 132,
      "y": 176
    }
  },
  {
    "id": 591560,
    "title": "Biobed",
    "category_id": 15610,
    "category": "Fragment",
    "icon": "fragment",
    "lat": 0.77898024923952,
    "lon": -1.0206394227683,
    "stitched_x": 4492.69,
    "stitched_y": 7307.94,
    "crop_x": 1778.69,
    "crop_y": 1707.94,
    "paste_x": 1738,
    "paste_y": 1598,
    "sprite_rect": {
      "height": 88,
      "pixelRatio": 2,
      "width": 66,
      "x": 132,
      "y": 176
    }
  },
  {
    "id": 591561,
    "title": "Sonic Resonator",
    "category_id": 15610,
    "category": "Fragment",
    "icon": "fragment",
    "lat": 0.75830236852003,
    "lon": -1.0414055739448,
    "stitched_x": 4250.75,
    "stitched_y": 7548.88,
    "crop_x": 1536.75,
    "crop_y": 1948.88,
    "paste_x": 1496,
    "paste_y": 1839,
    "sprite_rect": {
      "height": 88,
      "pixelRatio": 2,
      "width": 66,
      "x": 132,
      "y": 176
    }
  },
  {
    "id": 591562,
    "title": "Sonic Resonator",
    "category_id": 15610,
    "category": "Fragment",
    "icon": "fragment",
    "lat": 0.75890615385043,
    "lon": -1.0522917800359,
    "stitched_x": 4123.91,
    "stitched_y": 7541.84,
    "crop_x": 1409.91,
    "crop_y": 1941.84,
    "paste_x": 1369,
    "paste_y": 1832,
    "sprite_rect": {
      "height": 88,
      "pixelRatio": 2,
      "width": 66,
      "x": 132,
      "y": 176
    }
  },
  {
    "id": 591564,
    "title": "Sonic Resonator",
    "category_id": 15610,
    "category": "Fragment",
    "icon": "fragment",
    "lat": 0.78618244397045,
    "lon": -1.0341709283776,
    "stitched_x": 4335.04,
    "stitched_y": 7224.02,
    "crop_x": 1621.04,
    "crop_y": 1624.02,
    "paste_x": 1580,
    "paste_y": 1514,
    "sprite_rect": {
      "height": 88,
      "pixelRatio": 2,
      "width": 66,
      "x": 132,
      "y": 176
    }
  },
  {
    "id": 591566,
    "title": "Hydroelectric Turbine",
    "category_id": 15610,
    "category": "Fragment",
    "icon": "fragment",
    "lat": 0.80371407833023,
    "lon": -1.0390534289263,
    "stitched_x": 4278.15,
    "stitched_y": 7019.75,
    "crop_x": 1564.15,
    "crop_y": 1419.75,
    "paste_x": 1523,
    "paste_y": 1310,
    "sprite_rect": {
      "height": 88,
      "pixelRatio": 2,
      "width": 66,
      "x": 132,
      "y": 176
    }
  },
  {
    "id": 591570,
    "title": "Tadpole",
    "category_id": 15610,
    "category": "Fragment",
    "icon": "fragment",
    "lat": 0.80551528206978,
    "lon": -0.95492599045141,
    "stitched_x": 5258.31,
    "stitched_y": 6998.76,
    "crop_x": 2544.31,
    "crop_y": 1398.76,
    "paste_x": 2503,
    "paste_y": 1289,
    "sprite_rect": {
      "height": 88,
      "pixelRatio": 2,
      "width": 66,
      "x": 132,
      "y": 176
    }
  },
  {
    "id": 591571,
    "title": "Rectangular Ceiling Lighting",
    "category_id": 15610,
    "category": "Fragment",
    "icon": "fragment",
    "lat": 0.84275064926653,
    "lon": -0.98620017560586,
    "stitched_x": 4893.94,
    "stitched_y": 6564.89,
    "crop_x": 2179.94,
    "crop_y": 964.89,
    "paste_x": 2139,
    "paste_y": 855,
    "sprite_rect": {
      "height": 88,
      "pixelRatio": 2,
      "width": 66,
      "x": 132,
      "y": 176
    }
  },
  {
    "id": 591638,
    "title": "Sonic Resonator",
    "category_id": 15610,
    "category": "Fragment",
    "icon": "fragment",
    "lat": 0.77830283343009,
    "lon": -0.98017254465304,
    "stitched_x": 4964.16,
    "stitched_y": 7315.84,
    "crop_x": 2250.16,
    "crop_y": 1715.84,
    "paste_x": 2209,
    "paste_y": 1606,
    "sprite_rect": {
      "height": 88,
      "pixelRatio": 2,
      "width": 66,
      "x": 132,
      "y": 176
    }
  },
  {
    "id": 591655,
    "title": "Bioreactor",
    "category_id": 15610,
    "category": "Fragment",
    "icon": "fragment",
    "lat": 0.72482517549179,
    "lon": -0.91295782689033,
    "stitched_x": 5747.27,
    "stitched_y": 7938.95,
    "crop_x": 3033.27,
    "crop_y": 2338.95,
    "paste_x": 2992,
    "paste_y": 2229,
    "sprite_rect": {
      "height": 88,
      "pixelRatio": 2,
      "width": 66,
      "x": 132,
      "y": 176
    }
  },
  {
    "id": 591656,
    "title": "Sonic Resonator",
    "category_id": 15610,
    "category": "Fragment",
    "icon": "fragment",
    "lat": 0.72453179335714,
    "lon": -0.91178999184709,
    "stitched_x": 5760.88,
    "stitched_y": 7942.37,
    "crop_x": 3046.88,
    "crop_y": 2342.37,
    "paste_x": 3006,
    "paste_y": 2232,
    "sprite_rect": {
      "height": 88,
      "pixelRatio": 2,
      "width": 66,
      "x": 132,
      "y": 176
    }
  },
  {
    "id": 591657,
    "title": "Tailing Chest",
    "category_id": 15610,
    "category": "Fragment",
    "icon": "fragment",
    "lat": 0.67960021632997,
    "lon": -0.91161472085918,
    "stitched_x": 5762.92,
    "stitched_y": 8465.9,
    "crop_x": 3048.92,
    "crop_y": 2865.9,
    "paste_x": 3008,
    "paste_y": 2756,
    "sprite_rect": {
      "height": 88,
      "pixelRatio": 2,
      "width": 66,
      "x": 132,
      "y": 176
    }
  },
  {
    "id": 591658,
    "title": "Tailing Drum",
    "category_id": 15610,
    "category": "Fragment",
    "icon": "fragment",
    "lat": 0.67993338278062,
    "lon": -0.91054425973428,
    "stitched_x": 5775.39,
    "stitched_y": 8462.02,
    "crop_x": 3061.39,
    "crop_y": 2862.02,
    "paste_x": 3020,
    "paste_y": 2752,
    "sprite_rect": {
      "height": 88,
      "pixelRatio": 2,
      "width": 66,
      "x": 132,
      "y": 176
    }
  },
  {
    "id": 591659,
    "title": "Tailing Barrel",
    "category_id": 15610,
    "category": "Fragment",
    "icon": "fragment",
    "lat": 0.6807627544618,
    "lon": -0.90799216690675,
    "stitched_x": 5805.12,
    "stitched_y": 8452.35,
    "crop_x": 3091.12,
    "crop_y": 2852.35,
    "paste_x": 3050,
    "paste_y": 2742,
    "sprite_rect": {
      "height": 88,
      "pixelRatio": 2,
      "width": 66,
      "x": 132,
      "y": 176
    }
  },
  {
    "id": 591663,
    "title": "Thermal Plant",
    "category_id": 15610,
    "category": "Fragment",
    "icon": "fragment",
    "lat": 0.65901170384367,
    "lon": -0.92728093610529,
    "stitched_x": 5580.39,
    "stitched_y": 8705.79,
    "crop_x": 2866.39,
    "crop_y": 3105.79,
    "paste_x": 2825,
    "paste_y": 2996,
    "sprite_rect": {
      "height": 88,
      "pixelRatio": 2,
      "width": 66,
      "x": 132,
      "y": 176
    }
  },
  {
    "id": 591711,
    "title": "Improved Fins",
    "category_id": 15610,
    "category": "Fragment",
    "icon": "fragment",
    "lat": 0.71878823780247,
    "lon": -0.651989429217,
    "stitched_x": 8787.77,
    "stitched_y": 8009.29,
    "crop_x": 6073.77,
    "crop_y": 2409.29,
    "paste_x": 6033,
    "paste_y": 2299,
    "sprite_rect": {
      "height": 88,
      "pixelRatio": 2,
      "width": 66,
      "x": 132,
      "y": 176
    }
  },
  {
    "id": 591712,
    "title": "Rebreather",
    "category_id": 15610,
    "category": "Fragment",
    "icon": "fragment",
    "lat": 0.71851467401056,
    "lon": -0.65210744641817,
    "stitched_x": 8786.4,
    "stitched_y": 8012.48,
    "crop_x": 6072.4,
    "crop_y": 2412.48,
    "paste_x": 6031,
    "paste_y": 2302,
    "sprite_rect": {
      "height": 88,
      "pixelRatio": 2,
      "width": 66,
      "x": 132,
      "y": 176
    }
  },
  {
    "id": 591713,
    "title": "Hydroelectric Turbine",
    "category_id": 15610,
    "category": "Fragment",
    "icon": "fragment",
    "lat": 0.72037222717363,
    "lon": -0.65103666357078,
    "stitched_x": 8798.87,
    "stitched_y": 7990.83,
    "crop_x": 6084.87,
    "crop_y": 2390.83,
    "paste_x": 6044,
    "paste_y": 2281,
    "sprite_rect": {
      "height": 88,
      "pixelRatio": 2,
      "width": 66,
      "x": 132,
      "y": 176
    }
  },
  {
    "id": 591714,
    "title": "Time of Day Display",
    "category_id": 15610,
    "category": "Fragment",
    "icon": "fragment",
    "lat": 0.66211758341873,
    "lon": -0.67000914458461,
    "stitched_x": 8577.83,
    "stitched_y": 8669.6,
    "crop_x": 5863.83,
    "crop_y": 3069.6,
    "paste_x": 5823,
    "paste_y": 2960,
    "sprite_rect": {
      "height": 88,
      "pixelRatio": 2,
      "width": 66,
      "x": 132,
      "y": 176
    }
  },
  {
    "id": 591715,
    "title": "Improved Fins",
    "category_id": 15610,
    "category": "Fragment",
    "icon": "fragment",
    "lat": 0.66820894830478,
    "lon": -0.63948355615105,
    "stitched_x": 8933.48,
    "stitched_y": 8598.62,
    "crop_x": 6219.48,
    "crop_y": 2998.62,
    "paste_x": 6178,
    "paste_y": 2889,
    "sprite_rect": {
      "height": 88,
      "pixelRatio": 2,
      "width": 66,
      "x": 132,
      "y": 176
    }
  },
  {
    "id": 591716,
    "title": "Improved Fins",
    "category_id": 15610,
    "category": "Fragment",
    "icon": "fragment",
    "lat": 0.66496369504019,
    "lon": -0.63764423132184,
    "stitched_x": 8954.91,
    "stitched_y": 8636.44,
    "crop_x": 6240.91,
    "crop_y": 3036.44,
    "paste_x": 6200,
    "paste_y": 2926,
    "sprite_rect": {
      "height": 88,
      "pixelRatio": 2,
      "width": 66,
      "x": 132,
      "y": 176
    }
  },
  {
    "id": 591717,
    "title": "Modification Station",
    "category_id": 15610,
    "category": "Fragment",
    "icon": "fragment",
    "lat": 0.77031906469024,
    "lon": -0.41179418563755,
    "stitched_x": 11586.25,
    "stitched_y": 7408.86,
    "crop_x": 8872.25,
    "crop_y": 1808.86,
    "paste_x": 8831,
    "paste_y": 1699,
    "sprite_rect": {
      "height": 88,
      "pixelRatio": 2,
      "width": 66,
      "x": 132,
      "y": 176
    }
  },
  {
    "id": 591718,
    "title": "Advanced Battery",
    "category_id": 15610,
    "category": "Fragment",
    "icon": "fragment",
    "lat": 0.77044266160111,
    "lon": -0.41044168174071,
    "stitched_x": 11602.01,
    "stitched_y": 7407.42,
    "crop_x": 8888.01,
    "crop_y": 1807.42,
    "paste_x": 8847,
    "paste_y": 1697,
    "sprite_rect": {
      "height": 88,
      "pixelRatio": 2,
      "width": 66,
      "x": 132,
      "y": 176
    }
  },
  {
    "id": 591719,
    "title": "Thermal Plant",
    "category_id": 15610,
    "category": "Fragment",
    "icon": "fragment",
    "lat": 0.76480431495825,
    "lon": -0.41113033890829,
    "stitched_x": 11593.98,
    "stitched_y": 7473.12,
    "crop_x": 8879.98,
    "crop_y": 1873.12,
    "paste_x": 8839,
    "paste_y": 1763,
    "sprite_rect": {
      "height": 88,
      "pixelRatio": 2,
      "width": 66,
      "x": 132,
      "y": 176
    }
  },
  {
    "id": 591720,
    "title": "Tadpole Haul Chassis",
    "category_id": 15610,
    "category": "Fragment",
    "icon": "fragment",
    "lat": 0.70051778548196,
    "lon": -0.41209845587727,
    "stitched_x": 11582.7,
    "stitched_y": 8222.17,
    "crop_x": 8868.7,
    "crop_y": 2622.17,
    "paste_x": 8828,
    "paste_y": 2512,
    "sprite_rect": {
      "height": 88,
      "pixelRatio": 2,
      "width": 66,
      "x": 132,
      "y": 176
    }
  },
  {
    "id": 591721,
    "title": "Advanced Battery",
    "category_id": 15610,
    "category": "Fragment",
    "icon": "fragment",
    "lat": 0.69986337535111,
    "lon": -0.41264026209859,
    "stitched_x": 11576.39,
    "stitched_y": 8229.8,
    "crop_x": 8862.39,
    "crop_y": 2629.8,
    "paste_x": 8821,
    "paste_y": 2520,
    "sprite_rect": {
      "height": 88,
      "pixelRatio": 2,
      "width": 66,
      "x": 132,
      "y": 176
    }
  },
  {
    "id": 591722,
    "title": "Dive Elevator",
    "category_id": 15610,
    "category": "Fragment",
    "icon": "fragment",
    "lat": 0.69953091648912,
    "lon": -0.414121763118,
    "stitched_x": 11559.13,
    "stitched_y": 8233.67,
    "crop_x": 8845.13,
    "crop_y": 2633.67,
    "paste_x": 8804,
    "paste_y": 2524,
    "sprite_rect": {
      "height": 88,
      "pixelRatio": 2,
      "width": 66,
      "x": 132,
      "y": 176
    }
  },
  {
    "id": 575332,
    "title": "Supply Crate",
    "category_id": 15663,
    "category": "Supply Crate",
    "icon": "supply_crate",
    "lat": 0.81059391541135,
    "lon": -1.0436471164053,
    "stitched_x": 4224.63,
    "stitched_y": 6939.58,
    "crop_x": 1510.63,
    "crop_y": 1339.58,
    "paste_x": 1470,
    "paste_y": 1230,
    "sprite_rect": {
      "height": 88,
      "pixelRatio": 2,
      "width": 66,
      "x": 66,
      "y": 352
    }
  },
  {
    "id": 575334,
    "title": "Supply Crate",
    "category_id": 15663,
    "category": "Supply Crate",
    "icon": "supply_crate",
    "lat": 0.75359977113055,
    "lon": -1.0378697844499,
    "stitched_x": 4291.94,
    "stitched_y": 7603.67,
    "crop_x": 1577.94,
    "crop_y": 2003.67,
    "paste_x": 1537,
    "paste_y": 1894,
    "sprite_rect": {
      "height": 88,
      "pixelRatio": 2,
      "width": 66,
      "x": 66,
      "y": 352
    }
  },
  {
    "id": 575335,
    "title": "Supply Crate",
    "category_id": 15663,
    "category": "Supply Crate",
    "icon": "supply_crate",
    "lat": 0.68288306880782,
    "lon": -1.0871988663354,
    "stitched_x": 3717.22,
    "stitched_y": 8427.65,
    "crop_x": 1003.22,
    "crop_y": 2827.65,
    "paste_x": 962,
    "paste_y": 2718,
    "sprite_rect": {
      "height": 88,
      "pixelRatio": 2,
      "width": 66,
      "x": 66,
      "y": 352
    }
  },
  {
    "id": 575336,
    "title": "Supply Crate",
    "category_id": 15663,
    "category": "Supply Crate",
    "icon": "supply_crate",
    "lat": 0.68708520759372,
    "lon": -1.0617979194028,
    "stitched_x": 4013.16,
    "stitched_y": 8378.69,
    "crop_x": 1299.16,
    "crop_y": 2778.69,
    "paste_x": 1258,
    "paste_y": 2669,
    "sprite_rect": {
      "height": 88,
      "pixelRatio": 2,
      "width": 66,
      "x": 66,
      "y": 352
    }
  },
  {
    "id": 575337,
    "title": "Supply Crate",
    "category_id": 15663,
    "category": "Supply Crate",
    "icon": "supply_crate",
    "lat": 0.69599249700767,
    "lon": -0.85607927758013,
    "stitched_x": 6409.95,
    "stitched_y": 8274.9,
    "crop_x": 3695.95,
    "crop_y": 2674.9,
    "paste_x": 3655,
    "paste_y": 2565,
    "sprite_rect": {
      "height": 88,
      "pixelRatio": 2,
      "width": 66,
      "x": 66,
      "y": 352
    }
  },
  {
    "id": 575338,
    "title": "Supply Crate",
    "category_id": 15663,
    "category": "Supply Crate",
    "icon": "supply_crate",
    "lat": 0.6892277208535,
    "lon": -1.0611762967572,
    "stitched_x": 4020.4,
    "stitched_y": 8353.72,
    "crop_x": 1306.4,
    "crop_y": 2753.72,
    "paste_x": 1265,
    "paste_y": 2644,
    "sprite_rect": {
      "height": 88,
      "pixelRatio": 2,
      "width": 66,
      "x": 66,
      "y": 352
    }
  },
  {
    "id": 575339,
    "title": "Supply Crate",
    "category_id": 15663,
    "category": "Supply Crate",
    "icon": "supply_crate",
    "lat": 0.67049166144726,
    "lon": -1.0735008850129,
    "stitched_x": 3876.81,
    "stitched_y": 8572.03,
    "crop_x": 1162.81,
    "crop_y": 2972.03,
    "paste_x": 1122,
    "paste_y": 2862,
    "sprite_rect": {
      "height": 88,
      "pixelRatio": 2,
      "width": 66,
      "x": 66,
      "y": 352
    }
  },
  {
    "id": 575340,
    "title": "Supply Crate",
    "category_id": 15663,
    "category": "Supply Crate",
    "icon": "supply_crate",
    "lat": 0.66536221529572,
    "lon": -1.0755040854974,
    "stitched_x": 3853.47,
    "stitched_y": 8631.79,
    "crop_x": 1139.47,
    "crop_y": 3031.79,
    "paste_x": 1098,
    "paste_y": 2922,
    "sprite_rect": {
      "height": 88,
      "pixelRatio": 2,
      "width": 66,
      "x": 66,
      "y": 352
    }
  },
  {
    "id": 575341,
    "title": "Supply Crate",
    "category_id": 15663,
    "category": "Supply Crate",
    "icon": "supply_crate",
    "lat": 0.80569276671275,
    "lon": -1.0399451367058,
    "stitched_x": 4267.76,
    "stitched_y": 6996.69,
    "crop_x": 1553.76,
    "crop_y": 1396.69,
    "paste_x": 1513,
    "paste_y": 1287,
    "sprite_rect": {
      "height": 88,
      "pixelRatio": 2,
      "width": 66,
      "x": 66,
      "y": 352
    }
  },
  {
    "id": 575342,
    "title": "Supply Crate",
    "category_id": 15663,
    "category": "Supply Crate",
    "icon": "supply_crate",
    "lat": 0.74547916710207,
    "lon": -1.0197140662967,
    "stitched_x": 4503.47,
    "stitched_y": 7698.29,
    "crop_x": 1789.47,
    "crop_y": 2098.29,
    "paste_x": 1748,
    "paste_y": 1988,
    "sprite_rect": {
      "height": 88,
      "pixelRatio": 2,
      "width": 66,
      "x": 66,
      "y": 352
    }
  },
  {
    "id": 575343,
    "title": "Supply Crate",
    "category_id": 15663,
    "category": "Supply Crate",
    "icon": "supply_crate",
    "lat": 0.75850181753023,
    "lon": -1.0417946809215,
    "stitched_x": 4246.21,
    "stitched_y": 7546.56,
    "crop_x": 1532.21,
    "crop_y": 1946.56,
    "paste_x": 1491,
    "paste_y": 1837,
    "sprite_rect": {
      "height": 88,
      "pixelRatio": 2,
      "width": 66,
      "x": 66,
      "y": 352
    }
  },
  {
    "id": 575344,
    "title": "Supply Crate",
    "category_id": 15663,
    "category": "Supply Crate",
    "icon": "supply_crate",
    "lat": 0.7500921537519,
    "lon": -0.96095655907512,
    "stitched_x": 5188.04,
    "stitched_y": 7644.54,
    "crop_x": 2474.04,
    "crop_y": 2044.54,
    "paste_x": 2433,
    "paste_y": 1935,
    "sprite_rect": {
      "height": 88,
      "pixelRatio": 2,
      "width": 66,
      "x": 66,
      "y": 352
    }
  },
  {
    "id": 575345,
    "title": "Supply Crate",
    "category_id": 15663,
    "category": "Supply Crate",
    "icon": "supply_crate",
    "lat": 0.68040062606995,
    "lon": -0.96626203607348,
    "stitched_x": 5126.23,
    "stitched_y": 8456.57,
    "crop_x": 2412.23,
    "crop_y": 2856.57,
    "paste_x": 2371,
    "paste_y": 2747,
    "sprite_rect": {
      "height": 88,
      "pixelRatio": 2,
      "width": 66,
      "x": 66,
      "y": 352
    }
  },
  {
    "id": 575346,
    "title": "Supply Crate",
    "category_id": 15663,
    "category": "Supply Crate",
    "icon": "supply_crate",
    "lat": 0.68022108585265,
    "lon": -0.96669572629133,
    "stitched_x": 5121.18,
    "stitched_y": 8458.66,
    "crop_x": 2407.18,
    "crop_y": 2858.66,
    "paste_x": 2366,
    "paste_y": 2749,
    "sprite_rect": {
      "height": 88,
      "pixelRatio": 2,
      "width": 66,
      "x": 66,
      "y": 352
    }
  },
  {
    "id": 575347,
    "title": "Supply Crate",
    "category_id": 15663,
    "category": "Supply Crate",
    "icon": "supply_crate",
    "lat": 0.67621161630404,
    "lon": -1.0888619297328,
    "stitched_x": 3697.84,
    "stitched_y": 8505.38,
    "crop_x": 983.84,
    "crop_y": 2905.38,
    "paste_x": 943,
    "paste_y": 2795,
    "sprite_rect": {
      "height": 88,
      "pixelRatio": 2,
      "width": 66,
      "x": 66,
      "y": 352
    }
  },
  {
    "id": 575348,
    "title": "Supply Crate",
    "category_id": 15663,
    "category": "Supply Crate",
    "icon": "supply_crate",
    "lat": 0.66338018516851,
    "lon": -1.0192952812095,
    "stitched_x": 4508.35,
    "stitched_y": 8654.89,
    "crop_x": 1794.35,
    "crop_y": 3054.89,
    "paste_x": 1753,
    "paste_y": 2945,
    "sprite_rect": {
      "height": 88,
      "pixelRatio": 2,
      "width": 66,
      "x": 66,
      "y": 352
    }
  },
  {
    "id": 575350,
    "title": "Supply Crate",
    "category_id": 15663,
    "category": "Supply Crate",
    "icon": "supply_crate",
    "lat": 0.63896633472146,
    "lon": -1.0219851574042,
    "stitched_x": 4477.01,
    "stitched_y": 8939.35,
    "crop_x": 1763.01,
    "crop_y": 3339.35,
    "paste_x": 1722,
    "paste_y": 3229,
    "sprite_rect": {
      "height": 88,
      "pixelRatio": 2,
      "width": 66,
      "x": 66,
      "y": 352
    }
  },
  {
    "id": 575351,
    "title": "Supply Crate",
    "category_id": 15663,
    "category": "Supply Crate",
    "icon": "supply_crate",
    "lat": 0.63848277306953,
    "lon": -1.0649583645837,
    "stitched_x": 3976.34,
    "stitched_y": 8944.98,
    "crop_x": 1262.34,
    "crop_y": 3344.98,
    "paste_x": 1221,
    "paste_y": 3235,
    "sprite_rect": {
      "height": 88,
      "pixelRatio": 2,
      "width": 66,
      "x": 66,
      "y": 352
    }
  },
  {
    "id": 575352,
    "title": "Supply Crate",
    "category_id": 15663,
    "category": "Supply Crate",
    "icon": "supply_crate",
    "lat": 0.82105243230277,
    "lon": -1.0271746945509,
    "stitched_x": 4416.55,
    "stitched_y": 6817.72,
    "crop_x": 1702.55,
    "crop_y": 1217.72,
    "paste_x": 1662,
    "paste_y": 1108,
    "sprite_rect": {
      "height": 88,
      "pixelRatio": 2,
      "width": 66,
      "x": 66,
      "y": 352
    }
  },
  {
    "id": 575353,
    "title": "Supply Crate",
    "category_id": 15663,
    "category": "Supply Crate",
    "icon": "supply_crate",
    "lat": 0.67210706496547,
    "lon": -1.0213892670448,
    "stitched_x": 4483.95,
    "stitched_y": 8553.21,
    "crop_x": 1769.95,
    "crop_y": 2953.21,
    "paste_x": 1729,
    "paste_y": 2843,
    "sprite_rect": {
      "height": 88,
      "pixelRatio": 2,
      "width": 66,
      "x": 66,
      "y": 352
    }
  },
  {
    "id": 575354,
    "title": "Supply Crate",
    "category_id": 15663,
    "category": "Supply Crate",
    "icon": "supply_crate",
    "lat": 0.71848529543102,
    "lon": -0.97633405769283,
    "stitched_x": 5008.88,
    "stitched_y": 8012.82,
    "crop_x": 2294.88,
    "crop_y": 2412.82,
    "paste_x": 2254,
    "paste_y": 2303,
    "sprite_rect": {
      "height": 88,
      "pixelRatio": 2,
      "width": 66,
      "x": 66,
      "y": 352
    }
  },
  {
    "id": 575355,
    "title": "Supply Crate",
    "category_id": 15663,
    "category": "Supply Crate",
    "icon": "supply_crate",
    "lat": 0.72692817414955,
    "lon": -0.97110895794817,
    "stitched_x": 5069.76,
    "stitched_y": 7914.45,
    "crop_x": 2355.76,
    "crop_y": 2314.45,
    "paste_x": 2315,
    "paste_y": 2204,
    "sprite_rect": {
      "height": 88,
      "pixelRatio": 2,
      "width": 66,
      "x": 66,
      "y": 352
    }
  },
  {
    "id": 575356,
    "title": "Supply Crate",
    "category_id": 15663,
    "category": "Supply Crate",
    "icon": "supply_crate",
    "lat": 0.71315085634134,
    "lon": -1.0677270429344,
    "stitched_x": 3944.08,
    "stitched_y": 8074.98,
    "crop_x": 1230.08,
    "crop_y": 2474.98,
    "paste_x": 1189,
    "paste_y": 2365,
    "sprite_rect": {
      "height": 88,
      "pixelRatio": 2,
      "width": 66,
      "x": 66,
      "y": 352
    }
  },
  {
    "id": 575357,
    "title": "Supply Crate",
    "category_id": 15663,
    "category": "Supply Crate",
    "icon": "supply_crate",
    "lat": 0.67575023520818,
    "lon": -1.0241044569354,
    "stitched_x": 4452.32,
    "stitched_y": 8510.76,
    "crop_x": 1738.32,
    "crop_y": 2910.76,
    "paste_x": 1697,
    "paste_y": 2801,
    "sprite_rect": {
      "height": 88,
      "pixelRatio": 2,
      "width": 66,
      "x": 66,
      "y": 352
    }
  },
  {
    "id": 575358,
    "title": "Supply Crate",
    "category_id": 15663,
    "category": "Supply Crate",
    "icon": "supply_crate",
    "lat": 0.72264374609738,
    "lon": -1.0303550894818,
    "stitched_x": 4379.49,
    "stitched_y": 7964.37,
    "crop_x": 1665.49,
    "crop_y": 2364.37,
    "paste_x": 1624,
    "paste_y": 2254,
    "sprite_rect": {
      "height": 88,
      "pixelRatio": 2,
      "width": 66,
      "x": 66,
      "y": 352
    }
  },
  {
    "id": 575359,
    "title": "Supply Crate",
    "category_id": 15663,
    "category": "Supply Crate",
    "icon": "supply_crate",
    "lat": 0.71128184267925,
    "lon": -0.84160963715179,
    "stitched_x": 6578.54,
    "stitched_y": 8096.75,
    "crop_x": 3864.54,
    "crop_y": 2496.75,
    "paste_x": 3824,
    "paste_y": 2387,
    "sprite_rect": {
      "height": 88,
      "pixelRatio": 2,
      "width": 66,
      "x": 66,
      "y": 352
    }
  },
  {
    "id": 575360,
    "title": "Supply Crate",
    "category_id": 15663,
    "category": "Supply Crate",
    "icon": "supply_crate",
    "lat": 0.72846834148261,
    "lon": -0.99474951624688,
    "stitched_x": 4794.33,
    "stitched_y": 7896.5,
    "crop_x": 2080.33,
    "crop_y": 2296.5,
    "paste_x": 2039,
    "paste_y": 2187,
    "sprite_rect": {
      "height": 88,
      "pixelRatio": 2,
      "width": 66,
      "x": 66,
      "y": 352
    }
  },
  {
    "id": 575361,
    "title": "Supply Crate",
    "category_id": 15663,
    "category": "Supply Crate",
    "icon": "supply_crate",
    "lat": 0.69158687930883,
    "lon": -0.98969084902217,
    "stitched_x": 4853.27,
    "stitched_y": 8326.23,
    "crop_x": 2139.27,
    "crop_y": 2726.23,
    "paste_x": 2098,
    "paste_y": 2616,
    "sprite_rect": {
      "height": 88,
      "pixelRatio": 2,
      "width": 66,
      "x": 66,
      "y": 352
    }
  },
  {
    "id": 575362,
    "title": "Supply Crate",
    "category_id": 15663,
    "category": "Supply Crate",
    "icon": "supply_crate",
    "lat": 0.68967836679893,
    "lon": -0.99043592881644,
    "stitched_x": 4844.59,
    "stitched_y": 8348.47,
    "crop_x": 2130.59,
    "crop_y": 2748.47,
    "paste_x": 2090,
    "paste_y": 2638,
    "sprite_rect": {
      "height": 88,
      "pixelRatio": 2,
      "width": 66,
      "x": 66,
      "y": 352
    }
  },
  {
    "id": 575363,
    "title": "Supply Crate",
    "category_id": 15663,
    "category": "Supply Crate",
    "icon": "supply_crate",
    "lat": 0.76916501026937,
    "lon": -1.0057665888906,
    "stitched_x": 4665.97,
    "stitched_y": 7422.31,
    "crop_x": 1951.97,
    "crop_y": 1822.31,
    "paste_x": 1911,
    "paste_y": 1712,
    "sprite_rect": {
      "height": 88,
      "pixelRatio": 2,
      "width": 66,
      "x": 66,
      "y": 352
    }
  },
  {
    "id": 575364,
    "title": "Supply Crate",
    "category_id": 15663,
    "category": "Supply Crate",
    "icon": "supply_crate",
    "lat": 0.77137604804542,
    "lon": -1.0014236150491,
    "stitched_x": 4716.57,
    "stitched_y": 7396.55,
    "crop_x": 2002.57,
    "crop_y": 1796.55,
    "paste_x": 1962,
    "paste_y": 1687,
    "sprite_rect": {
      "height": 88,
      "pixelRatio": 2,
      "width": 66,
      "x": 66,
      "y": 352
    }
  },
  {
    "id": 575365,
    "title": "Supply Crate",
    "category_id": 15663,
    "category": "Supply Crate",
    "icon": "supply_crate",
    "lat": 0.77874886706885,
    "lon": -0.98005165024024,
    "stitched_x": 4965.57,
    "stitched_y": 7310.64,
    "crop_x": 2251.57,
    "crop_y": 1710.64,
    "paste_x": 2211,
    "paste_y": 1601,
    "sprite_rect": {
      "height": 88,
      "pixelRatio": 2,
      "width": 66,
      "x": 66,
      "y": 352
    }
  },
  {
    "id": 575366,
    "title": "Supply Crate",
    "category_id": 15663,
    "category": "Supply Crate",
    "icon": "supply_crate",
    "lat": 0.76260520919662,
    "lon": -0.9573774582706,
    "stitched_x": 5229.74,
    "stitched_y": 7498.74,
    "crop_x": 2515.74,
    "crop_y": 1898.74,
    "paste_x": 2475,
    "paste_y": 1789,
    "sprite_rect": {
      "height": 88,
      "pixelRatio": 2,
      "width": 66,
      "x": 66,
      "y": 352
    }
  },
  {
    "id": 575454,
    "title": "Supply Crate",
    "category_id": 15663,
    "category": "Supply Crate",
    "icon": "supply_crate",
    "lat": 0.80405778733699,
    "lon": -0.97585562838879,
    "stitched_x": 5014.46,
    "stitched_y": 7015.74,
    "crop_x": 2300.46,
    "crop_y": 1415.74,
    "paste_x": 2259,
    "paste_y": 1306,
    "sprite_rect": {
      "height": 88,
      "pixelRatio": 2,
      "width": 66,
      "x": 66,
      "y": 352
    }
  },
  {
    "id": 591097,
    "title": "Large Supply Crate",
    "category_id": 15663,
    "category": "Supply Crate",
    "icon": "supply_crate",
    "lat": 0.81011235040209,
    "lon": -1.0238699753564,
    "stitched_x": 4455.05,
    "stitched_y": 6945.19,
    "crop_x": 1741.05,
    "crop_y": 1345.19,
    "paste_x": 1700,
    "paste_y": 1235,
    "sprite_rect": {
      "height": 88,
      "pixelRatio": 2,
      "width": 66,
      "x": 66,
      "y": 352
    }
  },
  {
    "id": 591258,
    "title": "Large Supply Crate",
    "category_id": 15663,
    "category": "Supply Crate",
    "icon": "supply_crate",
    "lat": 0.6782799762337,
    "lon": -1.0900382608396,
    "stitched_x": 3684.13,
    "stitched_y": 8481.28,
    "crop_x": 970.13,
    "crop_y": 2881.28,
    "paste_x": 929,
    "paste_y": 2771,
    "sprite_rect": {
      "height": 88,
      "pixelRatio": 2,
      "width": 66,
      "x": 66,
      "y": 352
    }
  },
  {
    "id": 591450,
    "title": "Supply Crate",
    "category_id": 15663,
    "category": "Supply Crate",
    "icon": "supply_crate",
    "lat": 0.72051405262306,
    "lon": -1.07220087363,
    "stitched_x": 3891.95,
    "stitched_y": 7989.18,
    "crop_x": 1177.95,
    "crop_y": 2389.18,
    "paste_x": 1137,
    "paste_y": 2279,
    "sprite_rect": {
      "height": 88,
      "pixelRatio": 2,
      "width": 66,
      "x": 66,
      "y": 352
    }
  },
  {
    "id": 591493,
    "title": "Supply Crate",
    "category_id": 15663,
    "category": "Supply Crate",
    "icon": "supply_crate",
    "lat": 0.66217234262956,
    "lon": -0.97986839286733,
    "stitched_x": 4967.71,
    "stitched_y": 8668.96,
    "crop_x": 2253.71,
    "crop_y": 3068.96,
    "paste_x": 2213,
    "paste_y": 2959,
    "sprite_rect": {
      "height": 88,
      "pixelRatio": 2,
      "width": 66,
      "x": 66,
      "y": 352
    }
  },